,영업상태명,도로명주소,업태구분명,위도,경도
0,영업/정상,서울특별시 강남구 도곡로 532 ,편의점,37.4997795,127.0645688
1,영업/정상,서울특별시 강남구 강남대로66길 16 ,편의점,37.4919009,127.0321611
2,영업/정상,서울특별시 강남구 영동대로 511 ,패스트푸드,37.5103975,127.0611934
3,영업/정상,서울특별시 강남구 개포로 512 ,편의점,37.4892714,127.0688177
4,영업/정상,서울특별시 강남구 삼성로 151 ,편의점,37.4921261,127.0625653
5,영업/정상,서울특별시 강남구 역삼로 151 ,편의점,37.4949838,127.0356269
6,영업/정상,서울특별시 강남구 논현로 720 ,편의점,37.5163782,127.02989
7,영업/정상,서울특별시 강남구 영동대로 734 ,편의점,37.5235219,127.0557401
8,영업/정상,서울특별시 강남구 역삼로14길 7 ,편의점,37.4941156,127.0355155
9,영업/정상,서울특별시 강남구 선릉로 654 ,편의점,37.515062,127.0423659
10,영업/정상,서울특별시 강남구 압구정로 110 ,편의점,37.5229663,127.0209482
11,영업/정상,,편의점,0.0,0.0
12,영업/정상,서울특별시 강남구 남부순환로 3032 (대치동),편의점,37.494064,127.061816
13,영업/정상,서울특별시 강남구 영동대로138길 15 (청담동),편의점,37.5231861,127.0564349
14,영업/정상,서울특별시 강남구 강남대로120길 46 (논현동),편의점,37.5077473,127.0269038
15,영업/정상,서울특별시 강남구 테헤란로 204 (역삼동),편의점,37.5010091,127.0387161
16,영업/정상,서울특별시 강남구 테헤란로98길 15 (대치동),편의점,37.507379,127.0627588
17,영업/정상,서울특별시 강남구 도산대로 135 (신사동),편의점,37.5179973,127.0231684
18,영업/정상,"서울특별시 강남구 삼성로86길 16 (대치동,지상1층)",편의점,37.50576909999999,127.0587762
19,영업/정상,서울특별시 강남구 도곡로 510 (대치동),편의점,37.4989119,127.0619546
20,영업/정상,서울특별시 강남구 남부순환로365길 38 (도곡동),편의점,37.4877892,127.039948
21,영업/정상,서울특별시 강남구 선릉로131길 4 (논현동),편의점,37.5179838,127.0405799
22,영업/정상,서울특별시 강남구 테헤란로7길 22 (역삼동),편의점,37.500961,127.0306229
23,영업/정상,서울특별시 강남구 삼성로85길 19 (대치동),편의점,37.5047106,127.0557345
24,영업/정상,서울특별시 강남구 강남대로102길 11 (역삼동),편의점,37.5019478,127.0267345
25,영업/정상,,패스트푸드,0.0,0.0
26,영업/정상,"서울특별시 강남구 남부순환로365길 16, 101호 (도곡동,대림상가)",패스트푸드,37.4863012,127.0406942
27,영업/정상,서울특별시 강남구 선릉로93길 22 (역삼동),편의점,37.5050246,127.0467217
28,영업/정상,,편의점,0.0,0.0
29,영업/정상,서울특별시 강남구 도산대로46길 11 (논현동),편의점,37.5213123,127.036684
30,영업/정상,서울특별시 강남구 논현로152길 21 (신사동),편의점,37.5214085,127.0297925
31,영업/정상,서울특별시 강남구 광평로56길 10 (수서동),편의점,37.4870959,127.1038039
32,영업/정상,서울특별시 강남구 논현로 418 (역삼동),편의점,37.4976295,127.0388251
33,영업/정상,서울특별시 강남구 삼성로57길 33 (대치동),패스트푸드,37.4973341,127.0583675
34,영업/정상,서울특별시 강남구 선릉로 510 (삼성동),패스트푸드,37.51397499999999,127.0561274
35,영업/정상,서울특별시 강남구 역삼로64길 11 (대치동),패스트푸드,37.5003384,127.0531944
36,영업/정상,서울특별시 강남구 압구정로28길 28 (신사동),편의점,37.5247787,127.027515
37,영업/정상,"서울특별시 강남구 선릉로64길 5 (대치동,가호지상1층)",패스트푸드,37.497902,127.0526595
38,영업/정상,서울특별시 강남구 역삼로 416 (대치동),편의점,37.5009356,127.0526234
39,영업/정상,"서울특별시 강남구 압구정로 309 (압구정동,주구센타B동1층3,4호)",편의점,37.53121429999999,127.0354395
40,영업/정상,"서울특별시 강남구 언주로30길 10 (도곡동,현대비젼21지하101.102)",편의점,37.4873616,127.0513255
41,영업/정상,서울특별시 강남구 논현로105길 53 (역삼동),편의점,37.5051674,127.0300345
42,영업/정상,"서울특별시 강남구 논현로 808 (신사동,1층)",편의점,37.5209178,127.0283945
43,영업/정상,"서울특별시 강남구 언주로 508 (역삼동,상록회관 지하1)",패스트푸드,37.5039315,127.0428877
44,영업/정상,"서울특별시 강남구 도산대로 407, 1,2,3층 (청담동)",패스트푸드,37.5237405,127.0403038
45,영업/정상,"서울특별시 강남구 영동대로 511 (삼성동,(매장번호M1))",패스트푸드,37.5103975,127.0611934
46,영업/정상,"서울특별시 강남구 영동대로 513, 지하2층 (삼성동, 코엑스아쿠아리움)",패스트푸드,37.513131,127.0582827
47,영업/정상,,패스트푸드,0.0,0.0
48,영업/정상,"서울특별시 강남구 논현로 664 (논현동,(1층))",편의점,37.5158612,127.0201884
49,영업/정상,"서울특별시 강남구 언주로 406 (역삼동,(1층108호))",패스트푸드,37.5000776,127.0385419
50,영업/정상,"서울특별시 강남구 도곡로 401 (대치동,지하1층 식품부)",패스트푸드,37.4970578,127.0535939
51,영업/정상,"서울특별시 강남구 강남대로44길 21 (도곡동,951-23)",패스트푸드,37.4861388,127.0349113
52,영업/정상,서울특별시 강남구 봉은사로63길 11 (삼성동),패스트푸드,37.5121587,127.0468847
53,영업/정상,서울특별시 강남구 강남대로62길 18 (역삼동),패스트푸드,37.490455,127.0330547
54,영업/정상,서울특별시 강남구 도산대로96길 13 (청담동),패스트푸드,37.5236717,127.050972
55,영업/정상,서울특별시 강남구 테헤란로104길 12 (대치동),패스트푸드,37.5082758,127.0649445
56,영업/정상,"서울특별시 강남구 학동로43길 14 (논현동,,16)",패스트푸드,37.5171808,127.0375694
57,영업/정상,서울특별시 강남구 역삼로64길 25 (대치동),패스트푸드,37.4994977,127.0535786
58,영업/정상,"서울특별시 강남구 광평로 280 (수서동,지상1층)",패스트푸드,37.4873264,127.1031402
59,영업/정상,"서울특별시 강남구 테헤란로7길 22, 지상1층 101호 (역삼동)",편의점,37.500961,127.0306229
60,영업/정상,"서울특별시 강남구 테헤란로 517 (삼성동,지하1층)",패스트푸드,37.5085949,127.0597186
61,영업/정상,"서울특별시 강남구 논현로 509 (역삼동,지상1~2층)",패스트푸드,37.5019265,127.0360849
62,영업/정상,서울특별시 강남구 도산대로49길 18 (신사동),편의점,37.5240648,127.0373461
63,영업/정상,"서울특별시 강남구 선릉로86길 18 (대치동,1층)",패스트푸드,37.5033142,127.0512508
64,영업/정상,"서울특별시 강남구 영동대로 511 (삼성동,몬덱스1층)",패스트푸드,37.5103975,127.0611934
65,영업/정상,"서울특별시 강남구 테헤란로64길 18, 지상1층,지상2층 (대치동)",커피숍,37.503783,127.0512058
66,영업/정상,"서울특별시 강남구 남부순환로 2931 (대치동,동해상가105호)",편의점,37.4938027,127.0608597
67,영업/정상,"서울특별시 강남구 영동대로 511 (삼성동,한무컨벤션부속동지하2층월드푸드코트1호)",패스트푸드,37.5103975,127.0611934
68,영업/정상,"서울특별시 강남구 테헤란로34길 7, 지상1층 (역삼동, 외1필지 )",편의점,37.5010982,127.0402477
69,영업/정상,"서울특별시 강남구 논현로 841 (신사동,지상1층)",편의점,37.5240574,127.0279161
70,영업/정상,"서울특별시 강남구 강남대로78길 24 (역삼동,지상1층)",편의점,37.4952167,127.0313495
71,영업/정상,서울특별시 강남구 일원로 28 (일원동),패스트푸드,37.4912691,127.0793073
72,영업/정상,"서울특별시 강남구 도산대로 118 (논현동,지상1층)",패스트푸드,37.5166679,127.0217279
73,영업/정상,,패스트푸드,0.0,0.0
74,영업/정상,"서울특별시 강남구 강남대로152길 26, 지상1층 (신사동)",편의점,37.5175626,127.0215687
75,영업/정상,"서울특별시 강남구 영동대로 511 (삼성동,코엑스몰지하1층W11A)",패스트푸드,37.5103975,127.0611934
76,영업/정상,"서울특별시 강남구 압구정로 343 (압구정동,지하1층)",패스트푸드,37.5285614,127.0400548
77,영업/정상,"서울특별시 강남구 테헤란로13길 22-10 (역삼동,지하1층)",패스트푸드,37.501601,127.0323415
78,영업/정상,"서울특별시 강남구 논현로132길 15 (논현동,지상1층)",편의점,37.5153052,127.0317835
79,영업/정상,"서울특별시 강남구 학동로6길 30 (논현동,지상1층)",패스트푸드,37.5101517,127.0249673
80,영업/정상,"서울특별시 강남구 논현로67길 64 (역삼동,지상1층)",패스트푸드,37.4928732,127.0347036
81,영업/정상,"서울특별시 강남구 삼성로115길 46 (삼성동,지상1층)",편의점,37.5140146,127.0483999
82,영업/정상,"서울특별시 강남구 역삼로 546 (대치동,지상1층)",편의점,37.5042425,127.0628906
83,영업/정상,"서울특별시 강남구 압구정로18길 5 (신사동,지상1층)",편의점,37.5246005,127.0244014
84,영업/정상,"서울특별시 강남구 강남대로162길 45 (신사동,지상1층)",편의점,37.5211282,127.0219944
85,영업/정상,"서울특별시 강남구 도곡로37길 16 (역삼동,지상1층)",편의점,37.4948089,127.0451301
86,영업/정상,"서울특별시 강남구 개포로20길 24-16 (개포동,지상1층)",편의점,37.4767489,127.0469827
87,영업/정상,"서울특별시 강남구 테헤란로 437 (삼성동,삼영빌딩지상1층)",패스트푸드,37.506682,127.054964
88,영업/정상,"서울특별시 강남구 역삼로63길 16 (대치동,지상1층)",편의점,37.5022254,127.0522735
89,영업/정상,"서울특별시 강남구 언주로71길 9 (역삼동,지상1층)",편의점,37.4973421,127.0442752
90,영업/정상,"서울특별시 강남구 논현로 546 (역삼동,지상1층)",편의점,37.5000776,127.0385419
91,영업/정상,"서울특별시 강남구 개포로24길 6 (개포동,지상1층)",편의점,37.4784585,127.048079
92,영업/정상,"서울특별시 강남구 테헤란로4길 25 (역삼동,지상1층)",패스트푸드,37.4968556,127.0304526
93,영업/정상,"서울특별시 강남구 논현로159길 11 (신사동,궁전빌딩지상1층102호)",패스트푸드,37.5229023,127.0271953
94,영업/정상,"서울특별시 강남구 강남대로 390 (역삼동,지하1층제1호)",편의점,37.4978461,127.0286372
95,영업/정상,"서울특별시 강남구 도곡로 511 (대치동,지상2층)",패스트푸드,37.4996664,127.0622284
96,영업/정상,"서울특별시 강남구 압구정로 165 (압구정동,현대백화점지하1층)",패스트푸드,37.5273268,127.0274265
97,영업/정상,"서울특별시 강남구 논현로 808, 2층 (신사동)",패스트푸드,37.5209178,127.0283945
98,영업/정상,"서울특별시 강남구 영동대로 511 (삼성동,세중께임월드엑스박스코엑스몰지하1층)",패스트푸드,37.5103975,127.0611934
99,영업/정상,"서울특별시 강남구 삼성로63길 21 (대치동,지상1층)",편의점,37.4994418,127.0584264
100,영업/정상,"서울특별시 강남구 선릉로 705 (논현동,지상1층)",패스트푸드,37.5136787,127.0317124
101,영업/정상,"서울특별시 강남구 테헤란로77길 7 (삼성동,동원빌딩1층)",편의점,37.506918,127.0544715
102,영업/정상,"서울특별시 강남구 봉은사로 179 (논현동,지상1층)",편의점,37.5074822,127.0334248
103,영업/정상,"서울특별시 강남구 남부순환로 2921 (대치동,남서울종합시장지상1층75호)",패스트푸드,37.4936059,127.0597001
104,영업/정상,"서울특별시 강남구 학동로88길 5 (삼성동,진흥(아)단지내상가104호)",패스트푸드,37.5187966,127.0536358
105,영업/정상,"서울특별시 강남구 영동대로 511 (삼성동,지상5층)",패스트푸드,37.5103975,127.0611934
106,영업/정상,"서울특별시 강남구 남부순환로 2747 (도곡동,지상1층)",패스트푸드,37.48859059999999,127.0452757
107,영업/정상,"서울특별시 강남구 삼성로85길 42 (대치동,대우아이빌멤버스지상1층101호)",편의점,37.5046324,127.053752
108,영업/정상,"서울특별시 강남구 남부순환로 2730 (도곡동,지상1층)",편의점,37.48859059999999,127.0452757
109,영업/정상,"서울특별시 강남구 삼성로 417 (대치동,지상1층106,109,112호)",패스트푸드,37.4991887,127.0633458
110,영업/정상,"서울특별시 강남구 도곡로77길 7 (대치동,지상1층)",편의점,37.4988033,127.0583171
111,영업/정상,"서울특별시 강남구 논현로 68 (개포동,지상1층)",패스트푸드,37.482393,127.0704376
112,영업/정상,"서울특별시 강남구 논현로12길 19-9 (개포동,지상1층)",편의점,37.4753706,127.0486574
113,영업/정상,"서울특별시 강남구 강남대로 430 (역삼동,지상4층)",패스트푸드,37.5000776,127.0385419
114,영업/정상,"서울특별시 강남구 강남대로 600 (논현동,지상1층)",편의점,37.5136787,127.0317124
115,영업/정상,"서울특별시 강남구 테헤란로 152 (역삼동,스타타워빌딩지하1층3-D호)",패스트푸드,37.4999704,127.0365737
116,영업/정상,"서울특별시 강남구 선릉로86길 31 (대치동,롯데골드로즈2 지상1층101호)",편의점,37.5041507,127.0520978
117,영업/정상,"서울특별시 강남구 테헤란로88길 10 (대치동,지상1층108호)",편의점,37.5068833,127.059437
118,영업/정상,"서울특별시 강남구 압구정로 165 (압구정동,현대백화점지하1층)",패스트푸드,37.5273268,127.0274265
119,영업/정상,"서울특별시 강남구 선릉로86길 31 (대치동,롯데골드로즈2 지하1층)",패스트푸드,37.5041507,127.0520978
120,영업/정상,"서울특별시 강남구 도산대로89길 9 (청담동,지상1층)",패스트푸드,37.5253041,127.0504943
121,영업/정상,"서울특별시 강남구 학동로6길 3 (논현동,203호)",패스트푸드,37.5114366,127.0237433
122,영업/정상,"서울특별시 강남구 강남대로 574 (논현동,전기공사공제조합지하2층)",편의점,37.5136787,127.0317124
123,영업/정상,"서울특별시 강남구 언주로147길 10, 1층 (논현동)",편의점,37.5200269,127.0333886
124,영업/정상,"서울특별시 강남구 역삼로4길 16 (역삼동,성우스타우스지상1층109호)",편의점,37.4924086,127.0320238
125,영업/정상,"서울특별시 강남구 강남대로 지하 396, 강남역지하상가B-28호 (역삼동)",패스트푸드,37.497952,127.027619
126,영업/정상,"서울특별시 강남구 남부순환로359길 21 (도곡동,지상1층)",패스트푸드,37.4862263,127.0360915
127,영업/정상,"서울특별시 강남구 광평로 63 (일원동,지상1층)",패스트푸드,37.4828777,127.0796221
128,영업/정상,"서울특별시 강남구 도산대로15길 7 (신사동,지상1층)",편의점,37.5187552,127.023813
129,영업/정상,"서울특별시 강남구 선릉로 520, 지상1층 (삼성동, 선릉빌딩)",패스트푸드,37.505996,127.048496
130,영업/정상,"서울특별시 강남구 도곡로63길 12 (대치동,신농프라자지상1층105호)",패스트푸드,37.4978224,127.0545751
131,영업/정상,"서울특별시 강남구 광평로 280 (수서동,로즈데일빌딩지하2층125호)",패스트푸드,37.48748,127.102753
132,영업/정상,"서울특별시 강남구 선릉로 641 (논현동,지상1층102호)",편의점,37.5136787,127.0317124
133,영업/정상,"서울특별시 강남구 양재대로33길 25, 지상1층 106호 (일원동)",패스트푸드,37.4910937,127.0824284
134,영업/정상,"서울특별시 강남구 논현로 732 (논현동,지상3층)",패스트푸드,37.5136787,127.0317124
135,영업/정상,"서울특별시 강남구 선릉로 511 (역삼동,화신빌딩1층)",패스트푸드,37.5050919,127.0484133
136,영업/정상,"서울특별시 강남구 역삼로 246, 지상1층 (역삼동)",패스트푸드,37.49755469999999,127.0431617
137,영업/정상,"서울특별시 강남구 강남대로94길 75 (역삼동,지상1층)",패스트푸드,37.500774,127.0333951
138,영업/정상,"서울특별시 강남구 논현로34길 21, 1층 101호 (도곡동)",패스트푸드,37.48478220000001,127.0436641
139,영업/정상,"서울특별시 강남구 역삼로 310, 한솔필리아 지상1층 109,135,136호 (역삼동)",패스트푸드,37.4991554,127.0483257
140,영업/정상,"서울특별시 강남구 밤고개로1길 10 (수서동,현대벤쳐빌지하2층244호)",패스트푸드,37.4880163,127.1018486
141,영업/정상,"서울특별시 강남구 남부순환로 2941 (대치동,지상1층113호)",패스트푸드,37.49422680000001,127.0617852
142,영업/정상,"서울특별시 강남구 테헤란로19길 10 (역삼동,지상1층)",편의점,37.5007785,127.0337136
143,영업/정상,"서울특별시 강남구 테헤란로 517 (삼성동,현대백화점 지하1층)",패스트푸드,37.5085949,127.0597186
144,영업/정상,"서울특별시 강남구 강남대로66길 7 (역삼동,지상1층)",편의점,37.4919158,127.031437
145,영업/정상,"서울특별시 강남구 언주로30길 57 (도곡동,타워팰리스2 지하1층)",패스트푸드,37.4897104,127.0544907
146,영업/정상,"서울특별시 강남구 논현로117길 23 (논현동,지상1층 우측코너)",패스트푸드,37.5091337,127.0309783
147,영업/정상,"서울특별시 강남구 남부순환로359길 26 (도곡동,남측1층)",패스트푸드,37.4864318,127.0362457
148,영업/정상,"서울특별시 강남구 선릉로86길 7 (대치동,지상1층2호)",패스트푸드,37.503303,127.0503179
149,영업/정상,"서울특별시 강남구 선릉로8길 15 (개포동,지상1층 101호)",패스트푸드,37.4833508,127.0618376
150,영업/정상,"서울특별시 강남구 봉은사로74길 10 (삼성동,지상1층 101호)",패스트푸드,37.5117539,127.0514993
151,영업/정상,"서울특별시 강남구 삼성로96길 20 (삼성동,한무컨벤션별관 지하2층 2A2호)",패스트푸드,37.5089267,127.0575687
152,영업/정상,"서울특별시 강남구 언주로 609 (논현동,지하1층 B1-4호)",패스트푸드,37.5136787,127.0317124
153,영업/정상,"서울특별시 강남구 영동대로 721 (청담동,리버뷰오피스텔 지상1층 102호)",패스트푸드,37.5221738,127.0553545
154,영업/정상,"서울특별시 강남구 양재대로55길 15 (일원동,지상1층103호)",패스트푸드,37.4918891,127.0874845
155,영업/정상,"서울특별시 강남구 논현로 828 (신사동,메디플렉스빌딩지하1층)",편의점,37.5224913,127.0285546
156,영업/정상,"서울특별시 강남구 압구정로 204 (신사동,대연빌딩1층)",패스트푸드,37.5273711,127.0294125
157,영업/정상,"서울특별시 강남구 선릉로157길 12 (신사동,지상2~4층)",커피숍,37.5261279,127.0390202
158,영업/정상,"서울특별시 강남구 논현로 841 (신사동,제이비미소빌딩 지상1층 115호)",패스트푸드,37.5240574,127.0279161
159,영업/정상,"서울특별시 강남구 영동대로 513, 지하2층 (삼성동, 코엑스아쿠아리움)",패스트푸드,37.513131,127.0582827
160,영업/정상,"서울특별시 강남구 개포로 218 (개포동,지상1층 103호)",패스트푸드,37.478468,127.046625
161,영업/정상,"서울특별시 강남구 논현로175길 78 (신사동,지상1층)",패스트푸드,37.5237141,127.0226746
162,영업/정상,"서울특별시 강남구 논현로10길 30 (개포동,지상1층)",패스트푸드,37.4749679,127.0509586
163,영업/정상,"서울특별시 강남구 선릉로 402 (대치동,지상1층 104,105호)",패스트푸드,37.4991887,127.0633458
164,영업/정상,"서울특별시 강남구 선릉로6길 8 (개포동,지상1층)",패스트푸드,37.4825696,127.0616917
165,영업/정상,"서울특별시 강남구 테헤란로 152 (역삼동,강남파이낸스센타 지하2층)",패스트푸드,37.499927,127.036789
166,영업/정상,"서울특별시 강남구 테헤란로 147, 성지하이츠Ⅱ 지하1층 8호 (역삼동)",패스트푸드,37.5009488,127.0355183
167,영업/정상,"서울특별시 강남구 언주로86길 11 (역삼동,한화진넥스빌 지상1층 106호)",편의점,37.501905,127.0443538
168,영업/정상,"서울특별시 강남구 논현로85길 13 (역삼동,지상1층)",편의점,37.4991126,127.0362553
169,영업/정상,"서울특별시 강남구 테헤란로8길 25 (역삼동,지상1층)",패스트푸드,37.4972898,127.032158
170,영업/정상,"서울특별시 강남구 압구정로34길 11 (신사동,압구정스퀘어상가 104호)",편의점,37.5275138,127.0308776
171,영업/정상,"서울특별시 강남구 강남대로78길 14 (역삼동,신화빌딩 3층)",패스트푸드,37.4949184,127.0305405
172,영업/정상,"서울특별시 강남구 압구정로80길 26 (청담동,노아빌딩 1층)",편의점,37.5247356,127.0446031
173,영업/정상,"서울특별시 강남구 도곡로 504 (대치동,지상1층3,4호)",패스트푸드,37.4988116,127.0616425
174,영업/정상,"서울특별시 강남구 테헤란로25길 17 (역삼동,1층)",커피숍,37.5018112,127.0352111
175,영업/정상,"서울특별시 강남구 테헤란로1길 10, 세경빌딩 지상1층 1호 (역삼동)",편의점,37.4989555,127.0282257
176,영업/정상,"서울특별시 강남구 테헤란로 322 (역삼동,한신인터밸리 319호)",편의점,37.5029732,127.0465325
177,영업/정상,"서울특별시 강남구 도산대로90길 16 (청담동,(지상1층))",패스트푸드,37.5235766,127.048926
178,영업/정상,"서울특별시 강남구 테헤란로 310 (역삼동,지하1층)",편의점,37.5028251,127.0447848
179,영업/정상,"서울특별시 강남구 역삼로 145 (역삼동,지상1층)",패스트푸드,37.4947841,127.0352061
180,영업/정상,"서울특별시 강남구 테헤란로 152 (역삼동,강남파이낸스센터 지하2층)",패스트푸드,37.499927,127.036789
181,영업/정상,"서울특별시 강남구 역삼로5길 21 (역삼동,지상1층)",편의점,37.4951939,127.0317819
182,영업/정상,"서울특별시 강남구 선릉로148길 32 (청담동,지하1층)",편의점,37.5226413,127.0421813
183,영업/정상,"서울특별시 강남구 언주로30길 57 (도곡동,타워팰리스2스타슈퍼지하1층)",패스트푸드,37.4897104,127.0544907
184,영업/정상,"서울특별시 강남구 테헤란로 313 (역삼동,지상1층 112,113호)",편의점,37.5038117,127.0452472
185,영업/정상,"서울특별시 강남구 삼성로85길 11 (대치동,롯데캐슬(아)생활편의시설 지하1층 B14호)",패스트푸드,37.5047553,127.0564488
186,영업/정상,"서울특별시 강남구 도산대로58길 17 (청담동,지상1층)",편의점,37.5220687,127.041532
187,영업/정상,"서울특별시 강남구 봉은사로57길 13 (삼성동,지하1층)",편의점,37.5116276,127.0449346
188,영업/정상,"서울특별시 강남구 테헤란로4길 12 (역삼동,지상1층)",편의점,37.49665160000001,127.0302102
189,영업/정상,"서울특별시 강남구 테헤란로 313 (역삼동,성지하이츠 지상1층 114호)",패스트푸드,37.5038117,127.0452472
190,영업/정상,"서울특별시 강남구 학동로30길 14, 이세빌딩 지상1층 101호 (논현동)",편의점,37.5131534,127.0318824
191,영업/정상,"서울특별시 강남구 테헤란로 322 (역삼동,한신인터밸리103호)",편의점,37.5029732,127.0465325
192,영업/정상,"서울특별시 강남구 강남대로 388 (역삼동,강남센타지하2층202호)",패스트푸드,37.4974272,127.0283935
193,영업/정상,"서울특별시 강남구 강남대로136길 7 (논현동,지상1층)",편의점,37.5131593,127.021385
194,영업/정상,"서울특별시 강남구 선릉로 313 (역삼동,1층자호)",패스트푸드,37.49766169999999,127.051917
195,영업/정상,"서울특별시 강남구 삼성로 155 (대치동,117호)",편의점,37.4991887,127.0633458
196,영업/정상,"서울특별시 강남구 테헤란로 534 (대치동,글라스타워지하1층)",편의점,37.5080019,127.0627646
197,영업/정상,"서울특별시 강남구 선릉로 26 (개포동,JJ빌딩 1층)",패스트푸드,37.4822534,127.0614852
198,영업/정상,"서울특별시 강남구 개포로22길 20 (개포동,일흥빌딩 B02호)",패스트푸드,37.4775359,127.0483077
199,영업/정상,"서울특별시 강남구 선릉로 510, 지상1층 101호 (삼성동, 오성빌딩)",편의점,37.5051676,127.0489466
200,영업/정상,,패스트푸드,0.0,0.0
201,영업/정상,"서울특별시 강남구 봉은사로68길 5 (삼성동,지상1층)",편의점,37.5116249,127.0499617
202,영업/정상,"서울특별시 강남구 언주로107길 29 (역삼동,지상1층)",편의점,37.5072367,127.0368921
203,영업/정상,"서울특별시 강남구 논현로 705 (논현동,지상1층)",편의점,37.5136787,127.0317124
204,영업/정상,"서울특별시 강남구 테헤란로 532 (대치동,지상1층)",편의점,37.5082136,127.0622783
205,영업/정상,"서울특별시 강남구 선릉로 225 (도곡동,도곡렉슬상가1층139호)",패스트푸드,37.4953504,127.0527143
206,영업/정상,"서울특별시 강남구 선릉로 514 (삼성동,성원빌딩 지하1층)",패스트푸드,37.5055713,127.0491588
207,영업/정상,"서울특별시 강남구 압구정로30길 18 (신사동,지상1층)",편의점,37.5263176,127.0290336
208,영업/정상,"서울특별시 강남구 선릉로153길 18 (신사동,지상1층)",편의점,37.5248812,127.0379955
209,영업/정상,"서울특별시 강남구 테헤란로26길 10 (역삼동,지상1층)",편의점,37.4996374,127.035838
210,영업/정상,"서울특별시 강남구 논현로 848, 지하1층,지상1층 (신사동)",패스트푸드,37.5245826,127.0288278
211,영업/정상,"서울특별시 강남구 남부순환로 2917 (대치동,청실상가 101-가 호)",패스트푸드,37.49312949999999,127.059154
212,영업/정상,"서울특별시 강남구 삼성로67길 49 (대치동,지상1층)",편의점,37.4999305,127.0556143
213,영업/정상,"서울특별시 강남구 역삼로 444, 진경빌딩 지상1층 (대치동)",패스트푸드,37.50189400000001,127.055663
214,영업/정상,"서울특별시 강남구 학동로101길 7 (청담동,지상1층)",패스트푸드,37.5208705,127.0576271
215,영업/정상,"서울특별시 강남구 언주로 609 (논현동,팍스타워 지하1층 5호)",편의점,37.5098182,127.036922
216,영업/정상,"서울특별시 강남구 역삼로 408, 1층 101호 (대치동)",커피숍,37.500657,127.0519524
217,영업/정상,,커피숍,0.0,0.0
218,영업/정상,"서울특별시 강남구 강남대로 406 (역삼동,글라스타워1층101호)",패스트푸드,37.4990329,127.0276653
219,영업/정상,"서울특별시 강남구 언주로30길 57 (도곡동,타워팰리스2스타슈퍼점 지하1층)",패스트푸드,37.4897104,127.0544907
220,영업/정상,"서울특별시 강남구 도곡로4길 9 (도곡동,지상1층)",커피숍,37.4894068,127.0335487
221,영업/정상,"서울특별시 강남구 도산대로54길 48-19 (논현동,지상1층)",커피숍,37.5192379,127.0380747
222,영업/정상,"서울특별시 강남구 테헤란로14길 5 (역삼동,지상1층)",커피숍,37.4990902,127.0332052
223,영업/정상,"서울특별시 강남구 테헤란로8길 36 (역삼동,지상1층)",커피숍,37.4964913,127.031845
224,영업/정상,"서울특별시 강남구 학동로 171 (논현동,지상1층)",커피숍,37.5141299,127.0291812
225,영업/정상,"서울특별시 강남구 학동로38길 11 (논현동,지상1층)",커피숍,37.5142309,127.0345508
226,영업/정상,"서울특별시 강남구 논현로 623 (논현동,성지빌딩 1층)",패스트푸드,37.5092518,127.0326905
227,영업/정상,"서울특별시 강남구 밤고개로1길 10 (수서동,현대벤쳐빌 B228)",커피숍,37.4879855,127.1017774
228,영업/정상,"서울특별시 강남구 도곡로27길 47 (역삼동,지상1층)",편의점,37.495853,127.0412998
229,영업/정상,"서울특별시 강남구 테헤란로 152 (역삼동,2호선 역삼역 지하2층내)",편의점,37.500326,127.036087
230,영업/정상,"서울특별시 강남구 테헤란로104길 21 (대치동,아인스트랜드빌딩 지상1층)",커피숍,37.50761869999999,127.0657151
231,영업/정상,"서울특별시 강남구 압구정로 165 (압구정동,현대백화점 지하2층)",커피숍,37.5273268,127.0274265
232,영업/정상,"서울특별시 강남구 선릉로 836 (청담동,지상1,2층)",커피숍,37.52654580000001,127.0405746
233,영업/정상,"서울특별시 강남구 역삼로14길 14, 지상1층 (역삼동)",패스트푸드,37.4936284,127.0354675
234,영업/정상,"서울특별시 강남구 테헤란로 309 (역삼동,삼성제일빌딩 지하1층 7호)",패스트푸드,37.50351930000001,127.0444189
235,영업/정상,서울특별시 강남구 삼성로71길 34 (대치동),패스트푸드,37.5016541,127.0561169
236,영업/정상,"서울특별시 강남구 테헤란로6길 47 (역삼동,지상1층)",편의점,37.4956043,127.0318223
237,영업/정상,"서울특별시 강남구 도산대로24길 15 (논현동,상원빌딩 지하1층 101호)",패스트푸드,37.5180123,127.0266911
238,영업/정상,"서울특별시 강남구 학동로55길 12 (청담동,지상1층)",커피숍,37.518272,127.0420323
239,영업/정상,서울특별시 강남구 일원로 28 (일원동),패스트푸드,37.4912691,127.0793073
240,영업/정상,서울특별시 강남구 선릉로129길 5 (논현동),편의점,37.5162371,127.0410506
241,영업/정상,"서울특별시 강남구 역삼로20길 21 (역삼동,지하1층)",패스트푸드,37.4940456,127.0383796
242,영업/정상,"서울특별시 강남구 개포로116길 19 (일원동,지상1층)",커피숍,37.4930225,127.0818433
243,영업/정상,"서울특별시 강남구 선릉로116길 8 (삼성동,지상1층)",편의점,37.51246620000001,127.0438252
244,영업/정상,"서울특별시 강남구 언주로 314 (역삼동,강남프라자103호)",커피숍,37.5012195,127.0249718
245,영업/정상,"서울특별시 강남구 삼성로 342 (대치동,지상1층)",커피숍,37.4991887,127.0633458
246,영업/정상,"서울특별시 강남구 도곡로 531 (대치동,지상1층)",커피숍,37.50032119999999,127.0644992
247,영업/정상,"서울특별시 강남구 언주로85길 13 (역삼동,경남아파트상가 1층101호)",편의점,37.5004607,127.0424651
248,영업/정상,"서울특별시 강남구 개포로 512, 203호 (개포동)",패스트푸드,37.4892714,127.0688177
249,영업/정상,"서울특별시 강남구 테헤란로 326 (역삼동,1층 103호)",패스트푸드,37.503531,127.0470524
250,영업/정상,"서울특별시 강남구 도곡로 409, 한티역점 맥도날드 지하1층,지상1층 (대치동)",패스트푸드,37.4973819,127.0551699
251,영업/정상,"서울특별시 강남구 봉은사로11길 12 (논현동,논현이편한세상지하1층)",편의점,37.511206,127.021728
252,영업/정상,"서울특별시 강남구 남부순환로 2804 (도곡동,아카데미프라자에이동 지하1층102호)",패스트푸드,37.4889623,127.0519645
253,영업/정상,"서울특별시 강남구 논현로149길 27, 지상1층 (논현동)",편의점,37.5179192,127.0264054
254,영업/정상,"서울특별시 강남구 선릉로 7, 점포가동 208호 (개포동, 주공아파트)",커피숍,37.48865,127.0668327
255,영업/정상,서울특별시 강남구 일원로3길 24 (일원동),패스트푸드,37.4916541,127.0824669
256,영업/정상,"서울특별시 강남구 테헤란로107길 11 (삼성동,1층)",편의점,37.5104408,127.0650485
257,영업/정상,"서울특별시 강남구 논현로 340 (역삼동,정빌딩  지상1층)",패스트푸드,37.5035989,127.0269388
258,영업/정상,"서울특별시 강남구 언주로 427 (역삼동,역삼디오빌103호)",편의점,37.5014561,127.0426891
259,영업/정상,"서울특별시 강남구 테헤란로 322 (역삼동,지하2층 155호)",패스트푸드,37.5029732,127.0465325
260,영업/정상,"서울특별시 강남구 선릉로130길 20 (삼성동,래미안삼성2차상가 101호)",편의점,37.508861,127.063149
261,영업/정상,"서울특별시 강남구 봉은사로 327 (논현동,지상1층)",편의점,37.5101679,127.0425617
262,영업/정상,"서울특별시 강남구 테헤란로92길 11 (대치동,지상1층)",편의점,37.5072846,127.0613778
263,영업/정상,"서울특별시 강남구 언주로 118 (도곡동,우성캐릭터199. 101호)",편의점,37.4869807,127.0517581
264,영업/정상,"서울특별시 강남구 압구정로 110 (신사동,화인빌딩 1층)",편의점,37.5229557,127.0208697
265,영업/정상,"서울특별시 강남구 논현로131길 6 (논현동,지상1층)",편의점,37.5146549,127.0297896
266,영업/정상,"서울특별시 강남구 개포로 615, 116호 (개포동)",패스트푸드,37.4926936,127.0756284
267,영업/정상,"서울특별시 강남구 도산대로 454 (청담동,지하1층)",편의점,37.5237003,127.0460526
268,영업/정상,"서울특별시 강남구 논현로152길 33, 지상1층 일부호 (신사동)",패스트푸드,37.521731,127.0307978
269,영업/정상,"서울특별시 강남구 남부순환로 2936 (대치동,101호, 206호)",패스트푸드,37.4933573,127.0619092
270,영업/정상,,패스트푸드,0.0,0.0
271,영업/정상,"서울특별시 강남구 개포로 623 (개포동,대청타워 지하2층 B201호)",패스트푸드,37.4940992,127.0796795
272,영업/정상,"서울특별시 강남구 영동대로 511 (삼성동,번지 코엑스몰지하 A02호)",패스트푸드,37.5103975,127.0611934
273,영업/정상,"서울특별시 강남구 일원로3길 4 (일원동,지상1층)",패스트푸드,37.4910418,127.081186
274,영업/정상,"서울특별시 강남구 학동로63길 8 (청담동,(1층))",편의점,37.5185516,127.0450114
275,영업/정상,,편의점,0.0,0.0
276,영업/정상,"서울특별시 강남구 압구정로2길 57, 지상1층 (신사동)",패스트푸드,37.5182854,127.0214464
277,영업/정상,"서울특별시 강남구 영동대로 734, 지상6층 일부호 (청담동)",커피숍,37.5235219,127.0557401
278,영업/정상,"서울특별시 강남구 역삼로69길 28, 지상1층 (대치동)",편의점,37.5035057,127.0541319
279,영업/정상,"서울특별시 강남구 남부순환로377길 6, 지상1층 (도곡동)",편의점,37.4869682,127.0452155
280,영업/정상,"서울특별시 강남구 언주로30길 57, 지하1층 (도곡동, 타워팰리스Ⅱ)",패스트푸드,37.4897104,127.0544907
281,영업/정상,"서울특별시 강남구 도곡로4길 5, 지상1층 (도곡동)",패스트푸드,37.4896056,127.0333908
282,영업/정상,"서울특별시 강남구 밤고개로1길 10, 지상1층 10호 (수서동, 현대벤처빌)",편의점,37.4880163,127.1018486
283,영업/정상,"서울특별시 강남구 선릉로4길 19, 지상1층 101,102호 (개포동)",커피숍,37.4830339,127.0625823
284,영업/정상,"서울특별시 강남구 개포로 615, 지상1층 106-1호 (개포동, 석탑플라자)",편의점,37.4926936,127.0756284
285,영업/정상,"서울특별시 강남구 도산대로51길 44, 지상1층 (신사동)",편의점,37.525994,127.0383821
286,영업/정상,"서울특별시 강남구 개포로 623, 지상1층 113호 (개포동, 대청타워)",편의점,37.4943476,127.079616
287,영업/정상,"서울특별시 강남구 선릉로72길 20, 지상1층 (대치동)",편의점,37.500342,127.0528515
288,영업/정상,"서울특별시 강남구 삼성로 238, 지상106호 (대치동, 태원리치타운상가)",편의점,37.4986835,127.0613244
289,영업/정상,"서울특별시 강남구 언주로85길 13, 지상1층 101호 (역삼동)",편의점,37.5005712,127.0423112
290,영업/정상,"서울특별시 강남구 선릉로 815, 지하1층 5~13호 (신사동)",커피숍,37.5248974,127.0392938
291,영업/정상,"서울특별시 강남구 봉은사로68길 45, 지상1층 (삼성동)",편의점,37.5094876,127.0521053
292,영업/정상,"서울특별시 강남구 논현로85길 33, 지하1층 (역삼동, 서북빌딩)",패스트푸드,37.498322,127.0354103
293,영업/정상,"서울특별시 강남구 강남대로132길 10, 지상1층 (논현동)",편의점,37.512185,127.0219494
294,영업/정상,"서울특별시 강남구 테헤란로 101, E-43호 (역삼동, 강남역 지하도상가내점포)",패스트푸드,37.4986087,127.0278979
295,영업/정상,"서울특별시 강남구 테헤란로 316, 지하1층 (역삼동, 메트라이프타워 )",패스트푸드,37.5031609,127.0456389
296,영업/정상,"서울특별시 강남구 강남대로122길 50, 지상1층 (논현동)",패스트푸드,37.508876,127.0270848
297,영업/정상,"서울특별시 강남구 언주로30길 57, F동 B1호 (도곡동, 타워팰리스 2차)",패스트푸드,37.4897104,127.0544907
298,영업/정상,"서울특별시 강남구 선릉로 667, 지상1,2층 (논현동)",패스트푸드,37.5136787,127.0317124
299,영업/정상,"서울특별시 강남구 선릉로 815, 지상1층 108호 (신사동)",패스트푸드,37.5248974,127.0392938
300,영업/정상,"서울특별시 강남구 테헤란로 216, 지상101호 (역삼동)",편의점,37.50143,127.0401283
301,영업/정상,"서울특별시 강남구 테헤란로69길 9, 지상1층 (삼성동)",편의점,37.5064971,127.052277
302,영업/정상,"서울특별시 강남구 학동로4길 15, 지상1층 103호 (논현동)",편의점,37.5105327,127.0235227
303,영업/정상,"서울특별시 강남구 강남대로 지하 396, 강남역 지하1층 E-37호 (역삼동)",커피숍,37.497952,127.027619
304,영업/정상,"서울특별시 강남구 삼성로115길 37, 1층 101호 (삼성동)",패스트푸드,37.5140229,127.0491662
305,영업/정상,"서울특별시 강남구 테헤란로 403, 103호 (삼성동, 리치타워)",편의점,37.5050436,127.0495198
306,영업/정상,"서울특별시 강남구 삼성로92길 29, 지하1층,지상1,2층 (삼성동)",패스트푸드,37.5083235,127.0587887
307,영업/정상,"서울특별시 강남구 봉은사로11길 26, 지상1층 (논현동)",편의점,37.5075186,127.0285337
308,영업/정상,"서울특별시 강남구 학동로18길 38, 지상1층 102호 (논현동)",패스트푸드,37.5106535,127.0285651
309,영업/정상,"서울특별시 강남구 선릉로93길 22, 지상1층 1호 (역삼동)",커피숍,37.5050246,127.0467217
310,영업/정상,"서울특별시 강남구 영동대로96길 8, 지상1층 (삼성동, 석광빌딩)",커피숍,37.5105294,127.0631988
311,영업/정상,"서울특별시 강남구 학동로43길 18, 1층 (논현동)",커피숍,37.5173681,127.0376126
312,영업/정상,"서울특별시 강남구 강남대로 588, 지상1층 (논현동, 렉스관광호텔)",편의점,37.51437080000001,127.0205398
313,영업/정상,"서울특별시 강남구 테헤란로38길 42, 지상1층 (역삼동)",패스트푸드,37.499757,127.0428835
314,영업/정상,"서울특별시 강남구 테헤란로 114, 지하1층 (역삼동)",편의점,37.4982664,127.0297048
315,영업/정상,"서울특별시 강남구 도산대로12길 9, 지상1층 (논현동)",편의점,37.5171087,127.0238901
316,영업/정상,"서울특별시 강남구 봉은사로26길 14, 지상1층 (역삼동)",편의점,37.5059616,127.0331404
317,영업/정상,"서울특별시 강남구 논현로167길 16, 지상1층 106호 (신사동)",패스트푸드,37.5248025,127.0269102
318,영업/정상,서울특별시 강남구 논현로4길 43 (개포동),편의점,37.4741826,127.0532139
319,영업/정상,"서울특별시 강남구 도산대로 174, 지상2층 (논현동)",패스트푸드,37.5191166,127.0276642
320,영업/정상,서울특별시 강남구 학동로11길 6 (논현동),커피숍,37.5127344,127.0251346
321,영업/정상,"서울특별시 강남구 선릉로121길 6, 지상1층 (논현동)",패스트푸드,37.5143122,127.0418306
322,영업/정상,"서울특별시 강남구 도산대로37길 19, 지상1층 (신사동)",커피숍,37.5223027,127.0311474
323,영업/정상,"서울특별시 강남구 도곡로18길 57, 지하2층 (도곡동)",패스트푸드,37.4883342,127.0389595
324,영업/정상,"서울특별시 강남구 봉은사로 129, 지상층 103호 (논현동)",편의점,37.5058893,127.0282231
325,영업/정상,"서울특별시 강남구 논현로 732, 지상1층 (논현동)",편의점,37.5136787,127.0317124
326,영업/정상,"서울특별시 강남구 영동대로 513, 지상4층 (삼성동)",편의점,37.5125207,127.0588194
327,영업/정상,"서울특별시 강남구 논현로79길 72, 지상1층 (역삼동, 올림피아센터)",커피숍,37.4960853,127.0330087
328,영업/정상,"서울특별시 강남구 논현로155길 8, 지상1층 (신사동)",편의점,37.52190900000001,127.0273223
329,영업/정상,"서울특별시 강남구 도곡로 414 (대치동, 지상1층)",커피숍,37.4968866,127.0558815
330,영업/정상,"서울특별시 강남구 광평로 281, 103호 (수서동, 수서오피스텔)",편의점,37.4880028,127.1026639
331,영업/정상,"서울특별시 강남구 선릉로 723 (논현동, 단강빌딩1층)",커피숍,37.5136787,127.0317124
332,영업/정상,"서울특별시 강남구 봉은사로 630, 지상1층 (삼성동)",편의점,37.5147295,127.0643598
333,영업/정상,"서울특별시 강남구 봉은사로18길 85-7, 지상1층-지상2층 (역삼동)",패스트푸드,37.5012428,127.0278369
334,영업/정상,"서울특별시 강남구 논현로85길 5-15, 지상4층 401호 (역삼동)",커피숍,37.4983634,127.0367681
335,영업/정상,"서울특별시 강남구 테헤란로 517, 지하1층 (삼성동, 현대백화점)",패스트푸드,37.5085949,127.0597186
336,영업/정상,"서울특별시 강남구 도산대로26길 11, 지상1층 (논현동)",커피숍,37.5184932,127.0278352
337,영업/정상,"서울특별시 강남구 선릉로131길 9, 지상1층 (논현동)",패스트푸드,37.5174873,127.0400681
338,영업/정상,"서울특별시 강남구 밤고개로1길 52, 지상1층 (수서동)",편의점,37.4889719,127.1053398
339,영업/정상,"서울특별시 강남구 학동로 523, 지상1층 (청담동)",편의점,37.5200802,127.0559515
340,영업/정상,"서울특별시 강남구 강남대로 456 (역삼동, 한석타워 지상2층 201호)",커피숍,37.5030912,127.0255689
341,영업/정상,"서울특별시 강남구 테헤란로 211, 지상1층 (역삼동)",커피숍,37.5018239,127.0390557
342,영업/정상,"서울특별시 강남구 테헤란로 116, 지상1층-지상2층 (역삼동, 동경빌딩)",커피숍,37.4984292,127.0305581
343,영업/정상,"서울특별시 강남구 테헤란로4길 46, 지상1층 115호 (역삼동, 쌍용플래티넘)",패스트푸드,37.4953995,127.030406
344,영업/정상,"서울특별시 강남구 봉은사로 179, 지하1층 (논현동)",패스트푸드,37.5074822,127.0334248
345,영업/정상,"서울특별시 강남구 언주로87길 11, 지하1층 (역삼동)",패스트푸드,37.5013876,127.0420857
346,영업/정상,"서울특별시 강남구 헌릉로745길 25, A동 지하1층 132호 (율현동)",패스트푸드,37.4692537,127.1188325
347,영업/정상,"서울특별시 강남구 헌릉로618길 7, 지상1층 103호 (세곡동)",패스트푸드,37.4643044,127.1066948
348,영업/정상,"서울특별시 강남구 도산대로 425, 지상1층 (청담동, 모다빌딩)",커피숍,37.5239023,127.0423811
349,영업/정상,"서울특별시 강남구 테헤란로 517, 지하1층 (삼성동)",패스트푸드,37.5085949,127.0597186
350,영업/정상,"서울특별시 강남구 학동로55길 12-3, 지하1층 (청담동)",커피숍,37.5185957,127.0418613
351,영업/정상,"서울특별시 강남구 삼성로 712 (청담동, 지하1층)",커피숍,37.5197133,127.0501421
352,영업/정상,서울특별시 강남구 도산대로 532 (청담동),커피숍,37.5243529,127.051588
353,영업/정상,"서울특별시 강남구 삼성로103길 7, 지상1층 (삼성동)",편의점,37.5102204,127.0539712
354,영업/정상,"서울특별시 강남구 학동로 219, 지상1층 (논현동)",패스트푸드,37.5150479,127.0331376
355,영업/정상,"서울특별시 강남구 압구정로34길 11, 제1층 108호 (신사동, 압구정스퀘어)",커피숍,37.5273895,127.030957
356,영업/정상,"서울특별시 강남구 도산대로66길 43, 101호 (청담동)",편의점,37.520683,127.0438927
357,영업/정상,"서울특별시 강남구 봉은사로 206, 지상1층 (역삼동)",커피숍,37.50724570000001,127.0346555
358,영업/정상,"서울특별시 강남구 선릉로82길 43, 102호 (대치동)",커피숍,37.5035462,127.053504
359,영업/정상,"서울특별시 강남구 봉은사로74길 14, 지상1층 102호 (삼성동)",커피숍,37.5115669,127.0516857
360,영업/정상,"서울특별시 강남구 테헤란로4길 14, 지하2층 (역삼동, 미림타워)",커피숍,37.49725249999999,127.0295776
361,영업/정상,"서울특별시 강남구 압구정로 112, 지상1층 (신사동)",커피숍,37.523197,127.0210702
362,영업/정상,"서울특별시 강남구 테헤란로 107, 2층 (역삼동, 메디타워)",패스트푸드,37.4987079,127.0286602
363,영업/정상,"서울특별시 강남구 개포로 506, 201호 (개포동)",커피숍,37.4891361,127.067521
364,영업/정상,"서울특별시 강남구 남부순환로 2917, 청실종합상가 121호, 지하10-가호 (대치동)",패스트푸드,37.4931481,127.0590766
365,영업/정상,"서울특별시 강남구 삼성로 151, 지하1층 11-1호 (대치동, 선경상가 )",패스트푸드,37.4921261,127.0625653
366,영업/정상,"서울특별시 강남구 도곡로 416, 1층 (대치동, 서울시립장애인행복플러스센터)",커피숍,37.4970199,127.0559987
367,영업/정상,"서울특별시 강남구 밤고개로34길 4, 1층 1,2호 (세곡동)",편의점,37.4639996,127.1073088
368,영업/정상,"서울특별시 강남구 테헤란로38길 11 (역삼동, 유정빌딩)",편의점,37.5012916,127.0417799
369,영업/정상,"서울특별시 강남구 도곡로 112, 1층 (도곡동)",커피숍,37.48859059999999,127.0452757
370,영업/정상,"서울특별시 강남구 도산대로 123, 2~3층호 (신사동)",패스트푸드,37.5174758,127.0218777
371,영업/정상,서울특별시 강남구 삼성로104길 12 (삼성동),편의점,37.5108549,127.0557384
372,영업/정상,"서울특별시 강남구 강남대로102길 34, 1층 (역삼동)",커피숍,37.5030677,127.0280792
373,영업/정상,"서울특별시 강남구 테헤란로87길 36, 지하2층 B-23호 (삼성동, 도심공항타워)",커피숍,37.5125207,127.0588194
374,영업/정상,"서울특별시 강남구 역삼로 555, 지하1층 B101호 (대치동, W타워 별관)",커피숍,37.5050022,127.0633734
375,영업/정상,"서울특별시 강남구 학동로12길 47, 1층 (논현동)",편의점,37.5099882,127.0279062
376,영업/정상,"서울특별시 강남구 봉은사로29길 4, 1층 (논현동)",편의점,37.5080744,127.0348791
377,영업/정상,"서울특별시 강남구 봉은사로 638, 1층 (삼성동)",편의점,37.5148174,127.0650806
378,영업/정상,"서울특별시 강남구 테헤란로 117, 지상4층 (역삼동, LIG타워)",커피숍,37.4991928,127.0302652
379,영업/정상,"서울특별시 강남구 도산대로 539, 지상1층 (청담동)",커피숍,37.5251555,127.0526252
380,영업/정상,"서울특별시 강남구 강남대로122길 41, 1층 (논현동)",패스트푸드,37.5088267,127.0262678
381,영업/정상,"서울특별시 강남구 삼성로63길 16, 지하1층 (대치동)",패스트푸드,37.4998781,127.0588597
382,영업/정상,"서울특별시 강남구 강남대로66길 8, 1층 (역삼동)",편의점,37.4917118,127.0316007
383,영업/정상,"서울특별시 강남구 테헤란로4길 46, B1층 143호 (역삼동, 쌍용플래티넘밸류 상가)",커피숍,37.4953995,127.030406
384,영업/정상,"서울특별시 강남구 압구정로14길 24, 지상1층 102호 (신사동)",패스트푸드,37.5227255,127.023186
385,영업/정상,"서울특별시 강남구 압구정로12길 11, 지상2층 (신사동)",커피숍,37.5265851,127.0373028
386,영업/정상,"서울특별시 강남구 삼성로 238, 지상1층 101호 (대치동, 태원리치타운 상가)",커피숍,37.4986375,127.0614624
387,영업/정상,"서울특별시 강남구 압구정로32길 11, 캐럴라인타워 지하1층 B101호 (신사동)",커피숍,37.5269161,127.0302159
388,영업/정상,"서울특별시 강남구 강남대로 442, 지상2층 (역삼동)",커피숍,37.5000776,127.0385419
389,영업/정상,"서울특별시 강남구 도곡로84길 6, 지상1층 101호 (대치동)",패스트푸드,37.4989456,127.0625003
390,영업/정상,"서울특별시 강남구 논현로163길 33, 1층 (신사동)",커피숍,37.5238869,127.0251531
391,영업/정상,"서울특별시 강남구 논현로26길 48, 지상1,2층 (도곡동)",커피숍,37.4839805,127.0460208
392,영업/정상,"서울특별시 강남구 도곡로1길 14, 121호 (역삼동, 삼일프라자(121호중일부))",커피숍,37.4909042,127.0324853
393,영업/정상,"서울특별시 강남구 강남대로94길 87, 1층 101호 (역삼동)",커피숍,37.5009288,127.0342282
394,영업/정상,"서울특별시 강남구 테헤란로38길 6, 지상1층 (역삼동, MeMo빌딩)",편의점,37.5015926,127.0412906
395,영업/정상,"서울특별시 강남구 테헤란로 322, 지하1층 130호 (역삼동, 한신인터밸리)",커피숍,37.5029732,127.0465325
396,영업/정상,"서울특별시 강남구 도산대로85길 45, 지상1층 (청담동)",편의점,37.52760019999999,127.0497452
397,영업/정상,"서울특별시 강남구 언주로 738, 지상2층 (논현동)",커피숍,37.5136787,127.0317124
398,영업/정상,"서울특별시 강남구 헌릉로 569, 지상1층 102,103호 (세곡동)",패스트푸드,37.4657816,127.1011914
399,영업/정상,"서울특별시 강남구 논현로113길 7, 1층 104호 (논현동)",커피숍,37.508214,127.0325181
400,영업/정상,"서울특별시 강남구 개포로 650, 지상1층 103호 (일원동)",커피숍,37.4948273,127.0838916
401,영업/정상,"서울특별시 강남구 테헤란로87길 22, 지상2층 203-1호 (삼성동, 한국도심공항터미널)",커피숍,37.5095909,127.0592738
402,영업/정상,"서울특별시 강남구 학동로 343, 지하1층 B104호 (논현동, 포바강남타워)",커피숍,37.5174488,127.0406346
403,영업/정상,"서울특별시 강남구 테헤란로98길 6-9, 1층 (대치동)",커피숍,37.5076488,127.0615562
404,영업/정상,"서울특별시 강남구 논현로 30, 1층 (개포동, 와세다빌딩)",커피숍,37.473743,127.0490852
405,영업/정상,"서울특별시 강남구 영동대로 417, 1층 4호 (대치동, 오토웨이타워)",커피숍,37.5061133,127.0639172
406,영업/정상,"서울특별시 강남구 언주로147길 16, 1층 (논현동)",커피숍,37.5199198,127.032971
407,영업/정상,"서울특별시 강남구 언주로 516, 1층 (역삼동)",커피숍,37.5000776,127.0385419
408,영업/정상,"서울특별시 강남구 도산대로78길 15, 지상1층 (청담동)",커피숍,37.5228879,127.0469765
409,영업/정상,"서울특별시 강남구 도산대로11길 34, 지상1층 (신사동, 용원빌딩)",커피숍,37.5197624,127.0225174
410,영업/정상,"서울특별시 강남구 논현로 415, 1층 (역삼동)",커피숍,37.5000776,127.0385419
411,영업/정상,"서울특별시 강남구 테헤란로 201, 지하1층 (역삼동, 아주빌딩)",커피숍,37.5012383,127.0371323
412,영업/정상,"서울특별시 강남구 압구정로 165, 지하2층 (압구정동, 압구정 현대백화점 본점)",커피숍,37.5273268,127.0274265
413,영업/정상,"서울특별시 강남구 테헤란로70길 16, 1층 A-1호 (대치동, 동산빌딩)",커피숍,37.5043909,127.0533488
414,영업/정상,"서울특별시 강남구 압구정로14길 6, 1층 102호 (신사동)",커피숍,37.5238624,127.0229512
415,영업/정상,"서울특별시 강남구 도산대로 128, 1층 (논현동, 국민연금서울남부지역본부)",커피숍,37.5169329,127.0226927
416,영업/정상,"서울특별시 강남구 도곡로1길 14, 지상1층 108호 (역삼동, 삼일프라자오피스텔)",패스트푸드,37.4909042,127.0324853
417,영업/정상,서울특별시 강남구 남부순환로 2806 (도곡동),커피숍,37.48859059999999,127.0452757
418,영업/정상,"서울특별시 강남구 테헤란로64길 26, 지상1층 (대치동)",커피숍,37.5031284,127.0515542
419,영업/정상,"서울특별시 강남구 양재대로27길 20, 지상1층 (일원동)",커피숍,37.4904095,127.0816397
420,영업/정상,"서울특별시 강남구 삼성로 237, 102호 (대치동)",커피숍,37.4983679,127.060863
421,영업/정상,"서울특별시 강남구 자곡로 201, 지상1층 107,108호 (자곡동, 강남더샵라르고)",커피숍,37.4754456,127.1048608
422,영업/정상,"서울특별시 강남구 논현로 508, 지하1층 (역삼동, GS타워)",패스트푸드,37.502423,127.037589
423,영업/정상,"서울특별시 강남구 봉은사로 129, 1층 104호 (논현동, 거평타운)",커피숍,37.5058893,127.0282231
424,영업/정상,"서울특별시 강남구 압구정로 161, 1층 (압구정동, 강남관광정보센터)",커피숍,0.0,0.0
425,영업/정상,"서울특별시 강남구 삼성로 212, 지하1층 A블럭 31호 (대치동, 은마상가)",커피숍,37.4974176,127.0653272
426,영업/정상,"서울특별시 강남구 자곡로 201, 지상1층 111,112호 (자곡동, 강남더샵라르고)",패스트푸드,37.4754456,127.1048608
427,영업/정상,"서울특별시 강남구 논현로119길 42, 지하1층 B103호 (논현동)",커피숍,37.5087198,127.0296591
428,영업/정상,"서울특별시 강남구 삼성로 231, 104호 (대치동)",커피숍,37.49782769999999,127.0610138
429,영업/정상,"서울특별시 강남구 언주로 650, 지상1층 (논현동)",커피숍,37.5136787,127.0317124
430,영업/정상,"서울특별시 강남구 봉은사로 지하 102, 지하2층 (역삼동)",커피숍,37.505483,127.0459083
431,영업/정상,"서울특별시 강남구 테헤란로4길 46, 지하1층층 비상가110호 (역삼동, 쌍용플래티넘밸류)",편의점,37.4953995,127.030406
432,영업/정상,"서울특별시 강남구 논현로86길 21, 지상1층 (역삼동)",커피숍,37.5003219,127.0391772
433,영업/정상,"서울특별시 강남구 강남대로 402, 지하1,지상1층 (역삼동)",커피숍,37.498768,127.0277985
434,영업/정상,"서울특별시 강남구 강남대로54길 9, 3층 (도곡동)",커피숍,37.4884826,127.0333758
435,영업/정상,"서울특별시 강남구 남부순환로 2909, 지상1층 103,104,105호 (대치동)",커피숍,37.4922077,127.0573813
436,영업/정상,"서울특별시 강남구 봉은사로 지하 102, 지하2층 4-2호 (논현동, 9호선 신논현역)",패스트푸드,37.504724,127.02538
437,영업/정상,"서울특별시 강남구 개포로82길 11, 지상1층 108,109호 (개포동)",커피숍,37.4885331,127.0674474
438,영업/정상,"서울특별시 강남구 압구정로79길 35, 지상2층 (청담동)",커피숍,37.5254541,127.0501161
439,영업/정상,"서울특별시 강남구 테헤란로98길 8, 지상1층 (대치동, 코스모대치)",편의점,37.5077011,127.0620054
440,영업/정상,"서울특별시 강남구 역삼로77길 7, 지상1층 101호 (대치동)",편의점,37.5029735,127.0562759
441,영업/정상,"서울특별시 강남구 삼성로 654, 지상1층 109호 (삼성동)",커피숍,37.5185909,127.0507369
442,영업/정상,"서울특별시 강남구 선릉로76길 28, 2층 101호 (대치동)",커피숍,37.5018654,127.0528996
443,영업/정상,"서울특별시 강남구 언주로 508, 1층 (역삼동, 서울상록회관)",커피숍,37.5039315,127.0428877
444,영업/정상,"서울특별시 강남구 언주로 517, 지상1층 (역삼동, KT영동지사 호텔동 )",커피숍,37.5046469,127.0412634
445,영업/정상,"서울특별시 강남구 테헤란로25길 19, 지상1층 (역삼동)",커피숍,37.5019644,127.0352669
446,영업/정상,"서울특별시 강남구 테헤란로 134, 지상1층 (역삼동, 포스코P&S타워)",커피숍,37.4993385,127.0337927
447,영업/정상,"서울특별시 강남구 도산대로49길 16-4, 지상1층 (신사동)",커피숍,37.52392,127.0375948
448,영업/정상,"서울특별시 강남구 선릉로90길 56, 지상1층 108호 (대치동, 대치동 대우아이빌 명문가)",커피숍,37.5050809,127.0535226
449,영업/정상,"서울특별시 강남구 영동대로 513, 지하1층 M110호 (삼성동, 컨벤션센터)",커피숍,37.5125207,127.0588194
450,영업/정상,"서울특별시 강남구 강남대로84길 15, 지상1층 103호 (역삼동)",커피숍,37.4970267,127.0297692
451,영업/정상,"서울특별시 강남구 봉은사로2길 37, 5층 (역삼동)",커피숍,37.502241,127.0265948
452,영업/정상,"서울특별시 강남구 강남대로118길 28, 2층 201호 (논현동)",커피숍,37.506815,127.0256747
453,영업/정상,"서울특별시 강남구 논현로 667, 1층 (논현동, 맥도날드 학동역점)",패스트푸드,0.0,0.0
454,영업/정상,"서울특별시 강남구 도산대로81길 55, 지상1층 103호 (청담동)",커피숍,37.5272322,127.0455016
455,영업/정상,"서울특별시 강남구 영동대로 417, 지하1층 B-10호 (대치동)",커피숍,37.5061901,127.0637174
456,영업/정상,"서울특별시 강남구 테헤란로4길 46, 1층 113호 (역삼동, 쌍용플래티넘밸류)",커피숍,37.4953995,127.030406
457,영업/정상,"서울특별시 강남구 학동로 지하 508, 지하3층 729-3729,729-3730호 (청담동, 청담역)",커피숍,37.51912,127.051937
458,영업/정상,"서울특별시 강남구 역삼로9길 24, 지상1층 101호 (역삼동)",커피숍,37.4956074,127.0339094
459,영업/정상,"서울특별시 강남구 역삼로3길 11, 지상1층 1호 (역삼동)",커피숍,37.4942157,127.0311672
460,영업/정상,"서울특별시 강남구 테헤란로87길 22, 지하1층 Q125호 (삼성동, 도심공항몰)",커피숍,37.5096517,127.0593385
461,영업/정상,"서울특별시 강남구 논현로26길 30-6, 지하1~지상1층 (도곡동)",커피숍,37.4828188,127.0449808
462,영업/정상,"서울특별시 강남구 테헤란로87길 22, 지하1층 Q105호 (삼성동, 한국도심공항터미널)",커피숍,37.5095909,127.0592738
463,영업/정상,"서울특별시 강남구 테헤란로87길 22, 지하1층 Q106호 (삼성동, 한국도심공항터미널)",커피숍,37.5095909,127.0592738
464,영업/정상,"서울특별시 강남구 논현로 656, 지상1층 (논현동)",커피숍,37.5136787,127.0317124
465,영업/정상,"서울특별시 강남구 개포로22길 40, 1층 (개포동)",편의점,37.4765464,127.0493226
466,영업/정상,"서울특별시 강남구 영동대로 513, 지상1층 B002호 (삼성동, 기존컨벤션센타)",커피숍,37.5125207,127.0588194
467,영업/정상,"서울특별시 강남구 영동대로 513, 지하1층 I 112호 (삼성동, 컨벤션센타)",커피숍,37.5125207,127.0588194
468,영업/정상,"서울특별시 강남구 영동대로 513, 지상1층 E003호 (삼성동, 기존컨벤션센타)",커피숍,37.5125207,127.0588194
469,영업/정상,"서울특별시 강남구 압구정로 165, 지하1층 (압구정동, 현대백화점 압구정본점)",커피숍,37.5273268,127.0274265
470,영업/정상,"서울특별시 강남구 개포로140길 30, 지상1층 (일원동)",커피숍,37.4937421,127.0865568
471,영업/정상,"서울특별시 강남구 영동대로 513, 지하1층 L105호 (삼성동, 코엑스몰)",커피숍,37.5125207,127.0588194
472,영업/정상,"서울특별시 강남구 테헤란로 230, 1층 (역삼동)",커피숍,37.5018309,127.0415094
473,영업/정상,"서울특별시 강남구 봉은사로 443, 로얄빌딩 지상1층 (삼성동)",편의점,37.5118175,127.0482248
474,영업/정상,"서울특별시 강남구 영동대로 513, 지하1층 H119호 (삼성동, 기존컨벤션센터)",커피숍,37.5125207,127.0588194
475,영업/정상,"서울특별시 강남구 선릉로129길 31, 지하1층 (논현동)",커피숍,37.5153758,127.0390967
476,영업/정상,"서울특별시 강남구 영동대로 513, 지하1층 C113호 (삼성동, 코엑스컨벤션센터)",커피숍,37.5125207,127.0588194
477,영업/정상,"서울특별시 강남구 언주로 710, 지상1층 (논현동, 성암빌딩)",커피숍,37.5184781,127.0349554
478,영업/정상,"서울특별시 강남구 자곡로 202, 1층 117호 (자곡동, 강남힐스테이트에코)",편의점,37.4747354,127.1048177
479,영업/정상,"서울특별시 강남구 봉은사로74길 15, 지상1층 (삼성동)",편의점,37.5115428,127.0520441
480,영업/정상,"서울특별시 강남구 자곡로 204-5, A동 104호 (자곡동)",편의점,37.4742782,127.1054022
481,영업/정상,"서울특별시 강남구 영동대로 513, 지하1층 K107호 (삼성동, 코엑스기존컨벤션센터)",커피숍,37.5116828,127.059151
482,영업/정상,"서울특별시 강남구 강남대로152길 22, 지상1,2층 (신사동, 신사케이타워)",커피숍,37.5174321,127.0212712
483,영업/정상,"서울특별시 강남구 영동대로 513, 지하1층 K106호 (삼성동, 기존켄벤션센타)",커피숍,37.5125207,127.0588194
484,영업/정상,"서울특별시 강남구 언주로 517, 102,202호 (역삼동)",편의점,37.5046469,127.0412634
485,영업/정상,"서울특별시 강남구 개포로82길 7, 지상1층 5호 (개포동)",커피숍,37.4887765,127.0673245
486,영업/정상,"서울특별시 강남구 영동대로141길 5, 지하2층 (청담동, GOLFZON R)",커피숍,37.5233027,127.0543298
487,영업/정상,"서울특별시 강남구 도산대로 108, 지상1층 (논현동, 렉스타워)",커피숍,37.5162574,127.0206194
488,영업/정상,"서울특별시 강남구 봉은사로 207, 1층 (논현동, KJ 타워)",커피숍,37.5078425,127.0346742
489,영업/정상,"서울특별시 강남구 영동대로 513, 지하1층 N-101호 (삼성동, 컨벤션센터)",커피숍,37.5125207,127.0588194
490,영업/정상,"서울특별시 강남구 테헤란로4길 39, 지상1층 (역삼동, 강남대성빌딩)",커피숍,37.4958912,127.0310161
491,영업/정상,"서울특별시 강남구 학동로 224, 지하1층 B107호 (논현동, 삼환아르누보3)",커피숍,37.5144524,127.0333326
492,영업/정상,"서울특별시 강남구 영동대로 513, 1층 E001호 (삼성동, 기존컨벤션센터)",커피숍,37.5125207,127.0588194
493,영업/정상,"서울특별시 강남구 개포로22길 46, 1층 1호 (개포동)",커피숍,37.4762542,127.0496255
494,영업/정상,"서울특별시 강남구 삼성로63길 25, 지하1층 B101호 (대치동)",커피숍,37.4993918,127.058098
495,영업/정상,"서울특별시 강남구 도곡로 175, 지상1층 102호 (역삼동, 창립빌딩)",커피숍,37.4919529,127.0385429
496,영업/정상,"서울특별시 강남구 논현로 66, 지상1층 (개포동, 데님관광호텔)",커피숍,37.4761895,127.046616
497,영업/정상,"서울특별시 강남구 테헤란로 521, 지하1층 F18호 (삼성동, 그랜드인터컨티넨탈서울)",커피숍,37.5090474,127.060893
498,영업/정상,"서울특별시 강남구 언주로103길 10, 지상1층 (역삼동)",편의점,37.5067659,127.0392622
499,영업/정상,"서울특별시 강남구 도산대로25길 11, 2층 (신사동)",커피숍,37.5206031,127.0272279
500,영업/정상,"서울특별시 강남구 영동대로 726, 지상1층 (청담동, 경일빌딩)",커피숍,37.5228129,127.0562314
501,영업/정상,"서울특별시 강남구 언주로159길 10, 1층 (신사동)",편의점,37.5245138,127.032077
502,영업/정상,"서울특별시 강남구 언주로 721, 지상1층 (논현동, 서울본부세관별관)",커피숍,37.5183709,127.034412
503,영업/정상,"서울특별시 강남구 밤고개로1길 10, 지상1층 117-7호 (수서동, 수서현대밴쳐빌)",편의점,37.4880163,127.1018486
504,영업/정상,"서울특별시 강남구 언주로 728, 지하1층 (논현동)",편의점,37.5136787,127.0317124
505,영업/정상,"서울특별시 강남구 테헤란로64길 8, 1층 (대치동, 선릉역 롯데골드로즈오피스텔)",커피숍,37.50412710000001,127.050742
506,영업/정상,"서울특별시 강남구 남부순환로 2651, 1층 (도곡동)",커피숍,37.48859059999999,127.0452757
507,영업/정상,"서울특별시 강남구 남부순환로 2806, 지하1층 (도곡동)",커피숍,37.48859059999999,127.0452757
508,영업/정상,"서울특별시 강남구 개포로82길 13-9, 지상1층 114호 (개포동)",패스트푸드,37.4886373,127.0677765
509,영업/정상,"서울특별시 강남구 테헤란로63길 14, 지상1층 101호 (삼성동)",커피숍,37.5062226,127.0504414
510,영업/정상,"서울특별시 강남구 논현로87길 19, 1층 (역삼동)",커피숍,37.4994382,127.0350977
511,영업/정상,"서울특별시 강남구 선릉로8길 8, 1층 103호 (개포동)",커피숍,37.4828609,127.0615441
512,영업/정상,"서울특별시 강남구 강남대로102길 38-5, 지상1,2층 (역삼동)",커피숍,37.5033313,127.028573
513,영업/정상,"서울특별시 강남구 봉은사로20길 54, 1층 (역삼동, 무한빌딩)",커피숍,37.5037234,127.033337
514,영업/정상,"서울특별시 강남구 테헤란로 318, 1층 (역삼동)",커피숍,37.5032425,127.04584
515,영업/정상,"서울특별시 강남구 논현로115길 31, 지상1층 (논현동)",커피숍,37.5081856,127.0305569
516,영업/정상,"서울특별시 강남구 남부순환로 3318, 강남주민편익시설동 지상1층 (일원동)",커피숍,37.49357620000001,127.0925853
517,영업/정상,"서울특별시 강남구 논현로 752, 1층 (논현동)",커피숍,37.5136787,127.0317124
518,영업/정상,"서울특별시 강남구 삼성로 150, 지상1층 150호 (대치동, 미도상가)",커피숍,37.4933928,127.0673501
519,영업/정상,"서울특별시 강남구 일원로 28, 지상1, 2층 (일원동)",커피숍,37.4912691,127.0793073
520,영업/정상,"서울특별시 강남구 개포로 216, 지상1층 (개포동)",패스트푸드,37.4784336,127.0464347
521,영업/정상,"서울특별시 강남구 테헤란로 152, 지하2층 (역삼동, 강남파이낸스센터)",커피숍,37.499927,127.036789
522,영업/정상,"서울특별시 강남구 도곡로78길 6, 3층 302호 (대치동)",커피숍,37.4977479,127.0589213
523,영업/정상,"서울특별시 강남구 영동대로 647, 지하1층 B1호 (삼성동, 청담역 푸르지오시티)",커피숍,37.5197277,127.0566302
524,영업/정상,"서울특별시 강남구 언주로 110, 지상1층 가호 (개포동, 경남2차상가)",커피숍,37.4845146,127.054174
525,영업/정상,"서울특별시 강남구 양재대로27길 14, 지상1층 (일원동)",커피숍,37.4900783,127.0817816
526,영업/정상,"서울특별시 강남구 논현로16길 30, 1층 101호 (개포동)",커피숍,37.4771083,127.0487315
527,영업/정상,"서울특별시 강남구 봉은사로63길 8, 1층 102호 (삼성동)",커피숍,37.5119784,127.0472046
528,영업/정상,"서울특별시 강남구 강남대로66길 11, 1층 (역삼동)",커피숍,37.4920277,127.031692
529,영업/정상,"서울특별시 강남구 선릉로86길 8, 지상1층 (대치동)",커피숍,37.5030553,127.050498
530,영업/정상,"서울특별시 강남구 역삼로14길 15, 지하1층 (역삼동)",커피숍,37.4936232,127.0358108
531,영업/정상,"서울특별시 강남구 강남대로 지하 396, 지하1층 E-44호 (역삼동, 강남역지하도상가)",커피숍,37.497952,127.027619
532,영업/정상,"서울특별시 강남구 언주로104길 6, 1층 (역삼동)",커피숍,37.5070296,127.0408256
533,영업/정상,"서울특별시 강남구 역삼로 555, 지하1층 B102-1호 (대치동, 대치동더블유타워)",커피숍,37.5050022,127.0633734
534,영업/정상,"서울특별시 강남구 선릉로62길 28, 1층 (대치동)",커피숍,37.4976093,127.0548676
535,영업/정상,"서울특별시 강남구 테헤란로 322, 2층 319호 (역삼동, 한신인터밸리24)",커피숍,37.5029732,127.0465325
536,영업/정상,"서울특별시 강남구 논현로71길 34, 1층 (역삼동)",커피숍,37.4944591,127.036643
537,영업/정상,"서울특별시 강남구 도곡로 405, 1층 108호 (대치동, 삼환아르누보2)",커피숍,37.4974385,127.0546376
538,영업/정상,"서울특별시 강남구 테헤란로4길 46, 지하1층 B109호 (역삼동, 쌍용플래티넘밸류)",커피숍,37.4953995,127.030406
539,영업/정상,"서울특별시 강남구 테헤란로 322, 지하2층 비152호 (역삼동, 한신인터밸리24)",커피숍,37.5029732,127.0465325
540,영업/정상,"서울특별시 강남구 남부순환로 2806, 지상1층 (도곡동, 군인공제회관)",커피숍,37.4890581,127.0528941
541,영업/정상,"서울특별시 강남구 영동대로 308, 지상1층 (대치동, 오뚜기센터)",커피숍,37.5020721,127.0676293
542,영업/정상,"서울특별시 강남구 언주로167길 36, 1층 (신사동)",커피숍,37.526616,127.0303007
543,영업/정상,"서울특별시 강남구 언주로148길 14, 나동 지상1층 107호 (논현동, 청호불교문화원)",커피숍,37.5204069,127.0360954
544,영업/정상,"서울특별시 강남구 테헤란로1길 48, 지상1층 (역삼동)",커피숍,37.5014631,127.0269828
545,영업/정상,"서울특별시 강남구 봉은사로 407, 1,2층 (삼성동)",커피숍,37.5107842,127.0445632
546,영업/정상,"서울특별시 강남구 삼성로147길 6, 지상1층 (청담동)",커피숍,37.5225928,127.0475691
547,영업/정상,"서울특별시 강남구 양재대로43길 29, 지상1층 101, 102호 (일원동)",커피숍,37.49175,127.0845411
548,영업/정상,"서울특별시 강남구 강남대로152길 5, 1층 101호 (신사동, GS25 신사현대점 내)",편의점,37.51709719999999,127.0200364
549,영업/정상,서울특별시 강남구 언주로159길 3 (신사동),커피숍,37.5242868,127.0326448
550,영업/정상,"서울특별시 강남구 역삼로 306, 1층 108호 (역삼동, 개나리 래미안 상가)",편의점,37.4985708,127.0464187
551,영업/정상,"서울특별시 강남구 테헤란로81길 26, 지상1층 101호 (삼성동)",편의점,37.5086802,127.0568167
552,영업/정상,"서울특별시 강남구 압구정로29길 71, 점포4동 1층 115,116호 (압구정동)",편의점,37.5330263,127.0279257
553,영업/정상,"서울특별시 강남구 밤고개로1길 10, 비224호 (수서동, 수서현대벤쳐빌)",커피숍,37.4879855,127.1017774
554,영업/정상,"서울특별시 강남구 삼성로 767, 지하1층 (청담동)",커피숍,37.5231094,127.0476276
555,영업/정상,"서울특별시 강남구 학동로82길 21, 1층 (삼성동)",편의점,37.5176185,127.0519612
556,영업/정상,"서울특별시 강남구 언주로150길 51, 1층 (논현동)",편의점,37.5221798,127.03835
557,영업/정상,"서울특별시 강남구 언주로172길 22, 지상1층 (신사동)",커피숍,37.5274643,127.0354743
558,영업/정상,"서울특별시 강남구 학동로46길 35, 지하1층 (논현동)",커피숍,37.513889,127.0394925
559,영업/정상,"서울특별시 강남구 강남대로66길 6, 1층 (역삼동)",패스트푸드,37.4916699,127.0314571
560,영업/정상,"서울특별시 강남구 삼성로72길 5, 1층 101호 (대치동)",커피숍,37.5026664,127.0596142
561,영업/정상,"서울특별시 강남구 선릉로 344, 1층 1호 (대치동)",커피숍,37.4981636,127.0779335
562,영업/정상,"서울특별시 강남구 테헤란로 101, 지하1층 F-2호 (역삼동, 강남역지하쇼핑센터)",편의점,37.4986087,127.0278979
563,영업/정상,"서울특별시 강남구 도산대로26길 23, 1층 (논현동)",편의점,37.5176506,127.0282144
564,영업/정상,"서울특별시 강남구 영동대로118길 30-12, 1층 (삼성동)",커피숍,37.5170213,127.0626371
565,영업/정상,"서울특별시 강남구 도산대로 237, 지상1층 (신사동)",커피숍,37.5216406,127.033017
566,영업/정상,"서울특별시 강남구 언주로81길 8, 지상1층 101호 (역삼동)",커피숍,37.500366,127.042869
567,영업/정상,"서울특별시 강남구 도산대로 235, 지상1층 (신사동, 평화빌딩)",커피숍,37.5216195,127.0326427
568,영업/정상,"서울특별시 강남구 선릉로120길 8, 지상1층 (삼성동)",편의점,37.5137599,127.0433553
569,영업/정상,"서울특별시 강남구 테헤란로29길 10, 1층 (역삼동)",편의점,37.5023527,127.0388109
570,영업/정상,"서울특별시 강남구 테헤란로 522, 지하1층 (대치동, 홍우빌딩)",커피숍,37.507849,127.0613242
571,영업/정상,"서울특별시 강남구 삼성로 345, 1층 (대치동, 대림빌딩)",커피숍,37.5023034,127.0586846
572,영업/정상,"서울특별시 강남구 언주로93길 28-8, 1층 (역삼동)",편의점,37.50388760000001,127.0396225
573,영업/정상,"서울특별시 강남구 논현로 868, 지상1층 101호 (신사동, 구정빌딩)",커피숍,37.5261192,127.0287741
574,영업/정상,"서울특별시 강남구 테헤란로2길 8, 1층 (역삼동)",편의점,37.4976012,127.0287219
575,영업/정상,"서울특별시 강남구 영동대로128길 5, 지상1층 101,102호 (삼성동)",편의점,37.5197767,127.0583634
576,영업/정상,"서울특별시 강남구 도산대로81길 39, 1층 (청담동)",편의점,37.5267097,127.0466618
577,영업/정상,"서울특별시 강남구 테헤란로 109, 1층 (역삼동)",커피숍,37.4988108,127.0289974
578,영업/정상,"서울특별시 강남구 테헤란로21길 8, 1층 102호 (역삼동)",커피숍,37.5007948,127.0345185
579,영업/정상,"서울특별시 강남구 영동대로 511, 지하1층 (삼성동, 오크우드호텔)",편의점,37.5103975,127.0611934
580,영업/정상,"서울특별시 강남구 봉은사로30길 73, 1층 (역삼동)",커피숍,37.502921,127.0371126
581,영업/정상,"서울특별시 강남구 강남대로132길 48, 1층 101호 (논현동)",편의점,37.5129483,127.025035
582,영업/정상,"서울특별시 강남구 학동로 325, 1층 103호 (논현동)",커피숍,37.5166789,127.0386491
583,영업/정상,"서울특별시 강남구 광평로19길 15, 지하1층 3호 (일원동, 목련타운상가동)",패스트푸드,37.4848508,127.085277
584,영업/정상,"서울특별시 강남구 테헤란로 517, 지하1층 (삼성동, 무역센터 현대백화점)",커피숍,37.5086154,127.0597808
585,영업/정상,"서울특별시 강남구 압구정로 212, 1층 18,19호 (신사동)",커피숍,37.5278224,127.0304583
586,영업/정상,"서울특별시 강남구 테헤란로78길 16, 4층 (대치동, 노벨빌딩)",커피숍,37.5050626,127.0553827
587,영업/정상,"서울특별시 강남구 테헤란로 505, 1층 (삼성동)",커피숍,37.507586,127.0574469
588,영업/정상,"서울특별시 강남구 도산대로 509, 1층 (청담동)",커피숍,37.52475,127.0489409
589,영업/정상,"서울특별시 강남구 영동대로112길 5, 101호 (삼성동, 대광빌딩)",편의점,37.5151537,127.0606851
590,영업/정상,"서울특별시 강남구 압구정로 165, 지하1층 (압구정동, 현대백화점)",커피숍,37.5273268,127.0274265
591,영업/정상,"서울특별시 강남구 봉은사로 114, 지하1층 (역삼동)",편의점,37.5047222,127.0261101
592,영업/정상,"서울특별시 강남구 강남대로 지하 396, 지하층 B-25호 (역삼동, 강남역지하상가)",커피숍,37.4945723,127.0310219
593,영업/정상,"서울특별시 강남구 남부순환로359길 24, 1층 (도곡동)",커피숍,37.4863648,127.036316
594,영업/정상,"서울특별시 강남구 테헤란로10길 14, 1층 (역삼동)",편의점,37.4982105,127.0323325
595,영업/정상,"서울특별시 강남구 압구정로54길 16, 1층 (신사동)",편의점,37.5268477,127.0392751
596,영업/정상,"서울특별시 강남구 삼성로 155, 1층 108호 (대치동)",커피숍,37.4938284,127.062941
597,영업/정상,"서울특별시 강남구 테헤란로28길 3-10, 1층 (역삼동)",편의점,37.500992,127.0394847
598,영업/정상,"서울특별시 강남구 도산대로46길 21, 101동 B130호 (논현동)",커피숍,37.520717,127.0371476
599,영업/정상,"서울특별시 강남구 테헤란로1길 48, 1층 (역삼동)",커피숍,37.5014631,127.0269828
600,영업/정상,"서울특별시 강남구 선릉로 670, 지하1층 105호 (삼성동)",커피숍,37.5167176,127.0418019
601,영업/정상,"서울특별시 강남구 삼성로64길 5, 상가동 1층 103호 (대치동, 대치현대아파트)",커피숍,37.5008276,127.0609734
602,영업/정상,"서울특별시 강남구 논현로 636, 지상1,2층 (논현동, 이디야빌딩)",커피숍,37.5202946,127.0359457
603,영업/정상,"서울특별시 강남구 영동대로86길 10, 1층 (대치동)",편의점,37.5077928,127.064922
604,영업/정상,"서울특별시 강남구 논현로87길 15-4, 1층 (역삼동, 강남스테이)",커피숍,37.4994755,127.0352252
605,영업/정상,"서울특별시 강남구 도산대로50길 27, 지상1층 (논현동)",편의점,37.5206161,127.0377389
606,영업/정상,"서울특별시 강남구 도산대로89길 12, 1층 103-B호 (청담동)",커피숍,37.5252734,127.0508604
607,영업/정상,"서울특별시 강남구 학동로20길 33, 1층 (논현동)",편의점,37.5111267,127.0282024
608,영업/정상,"서울특별시 강남구 역삼로18길 22, 1층 (역삼동)",편의점,37.4934361,127.0365472
609,영업/정상,"서울특별시 강남구 선릉로112길 65, 1층 (삼성동)",커피숍,37.51270510000001,127.0488764
610,영업/정상,"서울특별시 강남구 남부순환로 2927, 1층 111호 (대치동)",패스트푸드,37.49391,127.060213
611,영업/정상,"서울특별시 강남구 밤고개로1길 10, 지하1층 B135호 (수서동, 현대벤쳐빌)",커피숍,37.4880163,127.1018486
612,영업/정상,"서울특별시 강남구 삼성로 38, 1층 111호 (개포동)",편의점,37.4886736,127.0668063
613,영업/정상,"서울특별시 강남구 강남대로 330, 지하1층 10호 (역삼동)",커피숍,37.492691,127.0306595
614,영업/정상,"서울특별시 강남구 강남대로98길 17, 지하1층 (역삼동, 시티힐빌딩)",편의점,37.5009836,127.0279568
615,영업/정상,"서울특별시 강남구 논현로164길 11, 1층 (신사동)",커피숍,37.5236938,127.0294376
616,영업/정상,"서울특별시 강남구 언주로98길 37, 1층 (역삼동)",편의점,37.5047397,127.0448197
617,영업/정상,"서울특별시 강남구 언주로147길 37, 지상1층 (논현동)",편의점,37.5190979,127.0312788
618,영업/정상,"서울특별시 강남구 논현로8길 21, 1층 (개포동)",편의점,37.4744436,127.0504635
619,영업/정상,"서울특별시 강남구 봉은사로84길 24-1, 지상2층 (삼성동)",커피숍,37.5116123,127.0557845
620,영업/정상,"서울특별시 강남구 일원로9길 68, 1층 (일원동)",커피숍,37.4908072,127.0869559
621,영업/정상,"서울특별시 강남구 봉은사로 442, 1층 (삼성동)",커피숍,37.5112707,127.0482316
622,영업/정상,"서울특별시 강남구 삼성로 402, 1층 (대치동)",커피숍,37.5033843,127.0588842
623,영업/정상,"서울특별시 강남구 역삼로77길 21, 지상1층 (대치동)",커피숍,37.5037981,127.0560147
624,영업/정상,"서울특별시 강남구 삼성로86길 18, 1층 (대치동, 우경빌딩)",커피숍,37.5001306,127.0522679
625,영업/정상,"서울특별시 강남구 테헤란로27길 12, 1층 (역삼동)",편의점,37.5022774,127.0380807
626,영업/정상,"서울특별시 강남구 테헤란로108길 23, 1층 (대치동)",커피숍,37.507999,127.0664386
627,영업/정상,"서울특별시 강남구 선릉로121길 15, 1층 (논현동)",편의점,37.5136723,127.0410236
628,영업/정상,"서울특별시 강남구 밤고개로26길 50, 1층 103호 (율현동, 강남 한신휴플러스 6단지)",커피숍,37.4676239,127.1054791
629,영업/정상,"서울특별시 강남구 개포로22길 47, 1층 103호 (개포동)",커피숍,37.4763004,127.0500668
630,영업/정상,"서울특별시 강남구 자곡로3길 21, 지하2층 (자곡동)",편의점,37.4712792,127.0886878
631,영업/정상,"서울특별시 강남구 테헤란로4길 46, 1층 (역삼동, 쌍용플래티넘밸류)",편의점,37.4953995,127.030406
632,영업/정상,"서울특별시 강남구 역삼로67길 25, 1층 (대치동)",편의점,37.5029987,127.0525202
633,영업/정상,"서울특별시 강남구 자곡로 120, 지상1층 101~103호 (자곡동, 세곡드림시티)",커피숍,37.4721173,127.0965093
634,영업/정상,"서울특별시 강남구 자곡로 175, 상가동 지상1층 101호 (자곡동, LH강남아이파크)",편의점,37.4746612,127.1014323
635,영업/정상,"서울특별시 강남구 언주로 874, 지하1층 (신사동, 쌍봉빌딩)",커피숍,37.5285405,127.0340485
636,영업/정상,"서울특별시 강남구 강남대로96길 9, 지상1층 (역삼동)",편의점,37.49988010000001,127.027735
637,영업/정상,"서울특별시 강남구 역삼로 531, 1층 (대치동)",편의점,37.5040778,127.0610134
638,영업/정상,"서울특별시 강남구 강남대로 570, 1층 (논현동)",편의점,37.5136787,127.0317124
639,영업/정상,"서울특별시 강남구 봉은사로51길 5, 지하1층 (논현동)",커피숍,37.5104091,127.042677
640,영업/정상,"서울특별시 강남구 논현로106길 16, 지하1층 B02호 (역삼동)",커피숍,37.5061957,127.0356758
641,영업/정상,"서울특별시 강남구 밤고개로23길 16, 지하1층 (율현동)",커피숍,37.4734785,127.1083547
642,영업/정상,"서울특별시 강남구 테헤란로87길 22, 지하1층 Q108호 (삼성동, 한국도심공항터미널)",커피숍,37.5095909,127.0592738
643,영업/정상,"서울특별시 강남구 논현로 412, 1층 107호 (역삼동)",커피숍,37.4969835,127.0391287
644,영업/정상,"서울특별시 강남구 도산대로83길 40, 1층 (청담동)",커피숍,37.5269454,127.0489526
645,영업/정상,"서울특별시 강남구 학동로 114, 1층 (논현동)",커피숍,37.5113788,127.0232601
646,영업/정상,"서울특별시 강남구 밤고개로1길 10, 지하2층 229호 (수서동, 현대벤처빌)",커피숍,37.4880163,127.1018486
647,영업/정상,"서울특별시 강남구 영동대로85길 17, 지하1층 B122호 (대치동, 우정에쉐르)",편의점,37.50688299999999,127.062278
648,영업/정상,"서울특별시 강남구 강남대로98길 17, 1층 (역삼동)",커피숍,37.5009836,127.0279568
649,영업/정상,"서울특별시 강남구 논현로157길 20, 지상1층 (신사동)",커피숍,37.52253,127.026391
650,영업/정상,"서울특별시 강남구 압구정로28길 18, 지상1층 (신사동)",편의점,37.5254752,127.0275733
651,영업/정상,"서울특별시 강남구 선릉로94길 3, 1층 (삼성동)",커피숍,37.5059024,127.0487832
652,영업/정상,"서울특별시 강남구 압구정로 113-22, 2층 4-1, 5호 (압구정동, 미성상가)",커피숍,37.5247099,127.0196554
653,영업/정상,"서울특별시 강남구 삼성로 434, 1층 (대치동)",편의점,37.505702,127.057668
654,영업/정상,"서울특별시 강남구 논현로159길 46-6, 지하1층 (신사동)",커피숍,37.5224404,127.0244584
655,영업/정상,"서울특별시 강남구 논현로85길 52, 1층 114호 (역삼동, 역삼푸르지오시티)",커피숍,37.4981764,127.0336436
656,영업/정상,"서울특별시 강남구 압구정로 165, 지하1층 (압구정동, 현대백화점본점)",커피숍,37.5273268,127.0274265
657,영업/정상,"서울특별시 강남구 테헤란로4길 14, 지하1층 (역삼동)",커피숍,37.49725249999999,127.0295776
658,영업/정상,"서울특별시 강남구 강남대로 318, 3층 (역삼동, 타워837)",커피숍,37.4915808,127.0311894
659,영업/정상,"서울특별시 강남구 봉은사로48길 32, 지하1층 2호 (역삼동)",편의점,37.5074117,127.0420832
660,영업/정상,"서울특별시 강남구 삼성로 520, 1층 (삼성동)",패스트푸드,37.51397499999999,127.0561274
661,영업/정상,"서울특별시 강남구 헌릉로569길 27, 2층 201-1호 (세곡동)",커피숍,37.466796,127.09879
662,영업/정상,"서울특별시 강남구 논현로175길 25, 1층 7호 (신사동)",커피숍,37.5254304,127.0266876
663,영업/정상,"서울특별시 강남구 선릉로85길 8, 1층 (역삼동, 유화빌딩)",편의점,37.5029304,127.0488578
664,영업/정상,"서울특별시 강남구 도산대로 309, 4층 (신사동)",커피숍,37.52237969999999,127.0351738
665,영업/정상,"서울특별시 강남구 테헤란로25길 20, 1층 104호 (역삼동, 역삼현대벤쳐텔)",패스트푸드,37.5016367,127.0356339
666,영업/정상,"서울특별시 강남구 도곡로 457, 지상1층 (대치동)",커피숍,37.49903460000001,127.0602191
667,영업/정상,"서울특별시 강남구 강남대로84길 23, 지상1층 104호 (역삼동)",패스트푸드,37.4971347,127.0303771
668,영업/정상,"서울특별시 강남구 논현로85길 52, 지상1층 112호 (역삼동, 역삼푸르지오시티)",커피숍,37.4981764,127.0336436
669,영업/정상,"서울특별시 강남구 개포로 621, 지하1층 B111호 (개포동, sh공사)",커피숍,37.4941587,127.0786895
670,영업/정상,"서울특별시 강남구 언주로 844, 지하1층 (신사동, 윤당빌딩)",커피숍,37.5256241,127.0337152
671,영업/정상,"서울특별시 강남구 테헤란로78길 16, 2층 (대치동)",커피숍,37.505202,127.0553917
672,영업/정상,"서울특별시 강남구 강남대로98길 14, 1층 (역삼동, 재상빌딩)",커피숍,37.5006975,127.0278398
673,영업/정상,"서울특별시 강남구 논현로114길 11, B01호 (논현동)",편의점,37.5088395,127.0343136
674,영업/정상,"서울특별시 강남구 선릉로 312, 1층 1호 (대치동)",커피숍,37.4981636,127.0779335
675,영업/정상,"서울특별시 강남구 테헤란로 521, 지상1층 T-1호 (삼성동, 파르나스)",편의점,37.5090474,127.060893
676,영업/정상,"서울특별시 강남구 도산대로8길 13, 1층 (논현동)",커피숍,37.51615,127.022335
677,영업/정상,"서울특별시 강남구 선릉로116길 8, 1층 (삼성동)",편의점,37.51246620000001,127.0438252
678,영업/정상,"서울특별시 강남구 논현로105길 13, 지하1층 (역삼동)",커피숍,37.5057492,127.0331265
679,영업/정상,"서울특별시 강남구 봉은사로71길 6, 지하1층 (삼성동)",편의점,37.5126709,127.0502031
680,영업/정상,"서울특별시 강남구 강남대로124길 46, 1층 (논현동)",편의점,37.5097859,127.0260008
681,영업/정상,"서울특별시 강남구 개포로 623, 1층 101호 (개포동, 대청타워)",커피숍,37.4940992,127.0796795
682,영업/정상,"서울특별시 강남구 자곡로7길 22-2, 지하1층 (자곡동)",커피숍,37.4734517,127.0983585
683,영업/정상,"서울특별시 강남구 논현로72길 13, 1층 (역삼동)",편의점,37.4958415,127.0405444
684,영업/정상,"서울특별시 강남구 선릉로82길 40, 지상1층 102호 (대치동)",커피숍,37.5032453,127.0532733
685,영업/정상,"서울특별시 강남구 삼성로81길 29, 지상1층 (대치동)",커피숍,37.5038827,127.05526
686,영업/정상,"서울특별시 강남구 강남대로94길 9, 1층 (역삼동)",편의점,37.4994846,127.0280991
687,영업/정상,"서울특별시 강남구 압구정로28길 22-6, 지하1층 (신사동)",커피숍,37.5252862,127.0270233
688,영업/정상,"서울특별시 강남구 삼성로76길 16, 1층 102호 (대치동)",커피숍,37.5040636,127.0596603
689,영업/정상,"서울특별시 강남구 선릉로68길 19, 지상1층 (대치동)",커피숍,37.4994047,127.0531876
690,영업/정상,"서울특별시 강남구 논현로115길 69, 1층 (논현동)",편의점,37.508337,127.0275059
691,영업/정상,"서울특별시 강남구 개포로15길 10, 1층 (개포동)",편의점,37.4792076,127.0453217
692,영업/정상,"서울특별시 강남구 개포로28길 15, 1층 (개포동)",편의점,37.4781007,127.049966
693,영업/정상,"서울특별시 강남구 테헤란로55길 27, 지상1층 (역삼동)",편의점,37.5059608,127.0465583
694,영업/정상,"서울특별시 강남구 논현로131길 31, 1층 (논현동)",편의점,37.5138108,127.0278185
695,영업/정상,"서울특별시 강남구 봉은사로44길 39, 지하1층 2호 (역삼동)",편의점,37.5068384,127.0413824
696,영업/정상,"서울특별시 강남구 삼성로75길 25, 지상1층 102호 (대치동)",커피숍,37.5029252,127.056121
697,영업/정상,"서울특별시 강남구 역삼로 550, 지상1층 (대치동)",커피숍,37.5043605,127.0632448
698,영업/정상,"서울특별시 강남구 봉은사로 509, 지상1층 (삼성동)",커피숍,37.5136004,127.0545809
699,영업/정상,"서울특별시 강남구 역삼로64길 9, 지상1층 (대치동)",커피숍,37.5004504,127.0531429
700,영업/정상,"서울특별시 강남구 개포로20길 12, 1층 (개포동)",편의점,37.4779337,127.0472578
701,영업/정상,"서울특별시 강남구 남부순환로 2927, 지상1층 130호 (대치동, 대치클레시아)",커피숍,37.49391,127.060213
702,영업/정상,"서울특별시 강남구 삼성로64길 35, 1층 (대치동)",편의점,37.5007014,127.0631946
703,영업/정상,"서울특별시 강남구 봉은사로21길 21, 1층 (논현동)",편의점,37.50804600000001,127.0306269
704,영업/정상,"서울특별시 강남구 역삼로3길 10, 지상1층 (역삼동)",편의점,37.49425859999999,127.0316291
705,영업/정상,"서울특별시 강남구 도산대로27길 43, 1층 (신사동)",커피숍,37.5227805,127.0273804
706,영업/정상,"서울특별시 강남구 영동대로85길 28, 지상1층 (대치동)",커피숍,37.5068614,127.0612484
707,영업/정상,"서울특별시 강남구 삼성로 635, 지하1층 (삼성동, 헤리티지산후조리센터)",커피숍,37.5165507,127.0509767
708,영업/정상,"서울특별시 강남구 역삼로 176, 지상1층 (역삼동)",커피숍,37.4953326,127.0384877
709,영업/정상,"서울특별시 강남구 논현로63길 19, 지상1층 (역삼동)",편의점,37.4924882,127.0393437
710,영업/정상,"서울특별시 강남구 강남대로 328, 지상1층 101,102,103,104,105호 (역삼동)",커피숍,37.4923581,127.0307076
711,영업/정상,"서울특별시 강남구 봉은사로 432, 지상1, 2층 (삼성동)",패스트푸드,37.5108805,127.0473581
712,영업/정상,"서울특별시 강남구 학동로97길 20, 지상1층 (청담동)",편의점,37.5212011,127.0554736
713,영업/정상,"서울특별시 강남구 압구정로18길 25, 1층 (신사동)",편의점,37.5235062,127.0253026
714,영업/정상,"서울특별시 강남구 봉은사로37길 28, 2층 (논현동)",편의점,37.5100534,127.0359577
715,영업/정상,"서울특별시 강남구 영동대로 416, 지하1층 107호 (대치동)",편의점,37.5066085,127.0653699
716,영업/정상,"서울특별시 강남구 강남대로94길 95, 지상2층 (역삼동)",편의점,37.5011583,127.0349529
717,영업/정상,"서울특별시 강남구 테헤란로25길 6-9, 지상1층 (역삼동)",편의점,37.5012886,127.0359271
718,영업/정상,"서울특별시 강남구 봉은사로6길 30, 지하1층 (역삼동)",커피숍,37.5030831,127.0272515
719,영업/정상,"서울특별시 강남구 삼성로100길 8, 1층 (삼성동)",편의점,37.5094695,127.0560524
720,영업/정상,"서울특별시 강남구 밤고개로 99, 지하1층 SB13호 (수서동, 수서역사 내)",패스트푸드,37.4860551,127.1042286
721,영업/정상,"서울특별시 강남구 밤고개로 99, 지하1층 SB12-1호 (수서동, SRT수서역사 내)",패스트푸드,37.4860551,127.1042286
722,영업/정상,"서울특별시 강남구 도산대로19길 20, 1층 (신사동)",커피숍,37.5200233,127.0252975
723,영업/정상,"서울특별시 강남구 압구정로29길 71, 5동 1층 101호 (압구정동, 현대상가)",커피숍,37.5330263,127.0279257
724,영업/정상,"서울특별시 강남구 도산대로8길 15, 지하1층 (논현동, 논현빌딩)",편의점,37.5160288,127.0224287
725,영업/정상,"서울특별시 강남구 강남대로94길 23, 1층 (역삼동)",편의점,37.4997686,127.0291746
726,영업/정상,"서울특별시 강남구 삼성로58길 39, 1층 (대치동)",편의점,37.4994486,127.0642747
727,영업/정상,"서울특별시 강남구 밤고개로 99, 지하1층 SB14호 (수서동, SRT수서역사)",편의점,37.4860551,127.1042286
728,영업/정상,"서울특별시 강남구 도산대로1길 28, 지상1층 (신사동)",편의점,37.5185809,127.0198569
729,영업/정상,"서울특별시 강남구 역삼로 139, 1층 103호 (역삼동)",커피숍,37.4946272,127.0346868
730,영업/정상,"서울특별시 강남구 영동대로 510, 지상1층 (삼성동)",편의점,37.5105425,127.0628806
731,영업/정상,"서울특별시 강남구 영동대로 720, 1층 (청담동)",커피숍,37.5222132,127.0565181
732,영업/정상,"서울특별시 강남구 학동로33길 46, 지상1층 (논현동)",편의점,37.5177401,127.032248
733,영업/정상,"서울특별시 강남구 삼성로100길 23-9, 지하1층 (삼성동)",커피숍,37.5106309,127.0569797
734,영업/정상,"서울특별시 강남구 압구정로12길 32, 지상2층,3층 (신사동)",커피숍,37.5265851,127.0373028
735,영업/정상,"서울특별시 강남구 논현로63길 16, 지상1층 113호 (역삼동, 역삼종합시장 더블루 상가)",커피숍,37.49300119999999,127.0391173
736,영업/정상,"서울특별시 강남구 삼성로64길 5, 상가동 3층 (대치동, 대치현대아파트)",커피숍,37.5008375,127.0606945
737,영업/정상,"서울특별시 강남구 논현로68길 12, 1층 (역삼동)",편의점,37.4946047,127.0409676
738,영업/정상,"서울특별시 강남구 학동로4길 24, 지상1층 106호 (논현동)",커피숍,37.509907,127.0233354
739,영업/정상,"서울특별시 강남구 논현로16길 10-3, 지상1층 (개포동)",커피숍,37.4761776,127.0475697
740,영업/정상,"서울특별시 강남구 언주로104길 12-4, 지상1층 101호 (역삼동)",커피숍,37.5070718,127.0414354
741,영업/정상,"서울특별시 강남구 남부순환로 2912, 상가동 1층 104호 (대치동)",편의점,37.4908388,127.0572409
742,영업/정상,"서울특별시 강남구 삼성로119길 37, 지상1층 (삼성동)",편의점,37.515298,127.0485626
743,영업/정상,"서울특별시 강남구 선릉로138길 44, 지하1층 B01-2호 (청담동)",커피숍,37.51891,127.0441751
744,영업/정상,"서울특별시 강남구 역삼로52길 14, 도곡프라자 지상1층 101호 (역삼동)",편의점,37.4985444,127.0479369
745,영업/정상,"서울특별시 강남구 테헤란로 335, 지상1층 (역삼동)",편의점,37.5046528,127.048292
746,영업/정상,"서울특별시 강남구 강남대로120길 47, 지상1층 (논현동)",패스트푸드,37.5079637,127.0272423
747,영업/정상,"서울특별시 강남구 강남대로 298, 지상1층 (역삼동)",커피숍,37.5000776,127.0385419
748,영업/정상,"서울특별시 강남구 강남대로 272, 102동 1층 103호 (도곡동, 도곡푸르지오)",커피숍,37.4877745,127.0329083
749,영업/정상,"서울특별시 강남구 언주로 118, 1층 133호 (도곡동, 우성캐릭터 199)",커피숍,37.4869209,127.041226
750,영업/정상,"서울특별시 강남구 언주로 547, 1층 (역삼동)",커피숍,37.5000776,127.0385419
751,영업/정상,"서울특별시 강남구 도산대로85길 30, 지하1층 (청담동, 청담신원아침도시마인)",커피숍,37.5263993,127.049622
752,영업/정상,"서울특별시 강남구 테헤란로 518, 지하1층 (대치동, 섬유센터)",커피숍,37.5075512,127.060561
753,영업/정상,"서울특별시 강남구 밤고개로 99, 지하2층 SB27호 (수서동)",편의점,37.4860551,127.1042286
754,영업/정상,"서울특별시 강남구 논현로 546, 1층 (역삼동)",커피숍,37.5000776,127.0385419
755,영업/정상,"서울특별시 강남구 밤고개로 252, 지상1층 102호 (율현동)",편의점,37.4717963,127.1068936
756,영업/정상,"서울특별시 강남구 테헤란로 337, 1층 (역삼동)",패스트푸드,37.5047883,127.0484604
757,영업/정상,"서울특별시 강남구 삼성로 237, 1층 104호 (대치동)",편의점,37.4983679,127.060863
758,영업/정상,"서울특별시 강남구 선릉로86길 31, 지상1층 104, 104-1호 (대치동, 선릉역 롯데골드로즈2)",커피숍,37.5041507,127.0520978
759,영업/정상,"서울특별시 강남구 테헤란로107길 10, 1층 (삼성동)",커피숍,37.5105112,127.0655436
760,영업/정상,"서울특별시 강남구 강남대로58길 14, 지상1층 2호 (도곡동)",커피숍,37.4898888,127.0346807
761,영업/정상,"서울특별시 강남구 테헤란로6길 39, 지하1층 B02호 (역삼동)",패스트푸드,37.4960798,127.0315942
762,영업/정상,"서울특별시 강남구 개포로 220, 지상1층 101호 (개포동)",커피숍,37.4785029,127.0468089
763,영업/정상,"서울특별시 강남구 테헤란로 111, 2층 (역삼동)",커피숍,37.4988934,127.0292682
764,영업/정상,"서울특별시 강남구 선릉로131길 25, 지상1층 (논현동)",편의점,37.5171412,127.0389353
765,영업/정상,"서울특별시 강남구 개포로109길 5, 1층 102호 (개포동, 대치아파트단지내상가)",편의점,37.4941844,127.0752156
766,영업/정상,"서울특별시 강남구 봉은사로 326, 지상1층 (역삼동, 남전빌딩)",커피숍,37.50962630000001,127.0426871
767,영업/정상,"서울특별시 강남구 봉은사로82길 16, 지상1층 101호 (삼성동, 스카이빌)",편의점,37.51212080000001,127.0549994
768,영업/정상,"서울특별시 강남구 언주로98길 7, 1층 (역삼동)",편의점,37.5051672,127.0424533
769,영업/정상,"서울특별시 강남구 학동로43길 38, 지상1층 127호 (논현동, 논현웰스톤)",커피숍,37.5184523,127.03803
770,영업/정상,"서울특별시 강남구 삼성로 150, 지하1층 3호 (대치동, 한보종합상가)",커피숍,37.4933928,127.0673501
771,영업/정상,"서울특별시 강남구 강남대로 358, 지상9층 (역삼동, 삼성생명 역삼동 빌딩)",커피숍,37.4969927,127.0403833
772,영업/정상,"서울특별시 강남구 도곡로69길 14, 1층 (대치동)",편의점,37.4982672,127.0559861
773,영업/정상,"서울특별시 강남구 학동로 419, 1층 (청담동)",커피숍,37.5183507,127.0459641
774,영업/정상,"서울특별시 강남구 도산대로33길 8, 지상1층 101호 (신사동, 산도빌딩)",커피숍,37.5211626,127.0303013
775,영업/정상,"서울특별시 강남구 봉은사로 지하 601, 지하1층 929-1호 (삼성동, 봉은사역)",편의점,37.514221,127.060266
776,영업/정상,"서울특별시 강남구 봉은사로4길 20, 지상2층 (역삼동, 라파엘빌딩)",커피숍,37.5034798,127.0263357
777,영업/정상,"서울특별시 강남구 도산대로15길 43, 지상1층 (신사동)",커피숍,37.5210275,127.0231724
778,영업/정상,"서울특별시 강남구 언주로130길 35, 지상2층 (논현동)",커피숍,37.5157692,127.0382118
779,영업/정상,"서울특별시 강남구 논현로146길 11, 지상1층 (논현동)",편의점,37.51823359999999,127.0299141
780,영업/정상,"서울특별시 강남구 일원로5길 6, 지상1층 (일원동)",편의점,37.4906452,127.0815162
781,영업/정상,"서울특별시 강남구 테헤란로81길 13, 지상1층 (삼성동)",커피숍,37.5079687,127.0568782
782,영업/정상,"서울특별시 강남구 영동대로 513, 지하1층 P101호 (삼성동, 코엑스 스타필드)",편의점,37.5125207,127.0588194
783,영업/정상,"서울특별시 강남구 언주로 419, 지상1층 1호 (역삼동)",커피숍,37.5002694,127.0434333
784,영업/정상,"서울특별시 강남구 도산대로11길 15, 5층 502호 (신사동)",커피숍,37.5184632,127.0223766
785,영업/정상,"서울특별시 강남구 양재천로 185, 1층 (도곡동)",커피숍,37.4824591,127.0460329
786,영업/정상,"서울특별시 강남구 남부순환로359길 26, 1층 (도곡동)",커피숍,37.4864318,127.0362457
787,영업/정상,"서울특별시 강남구 언주로125길 11, 1층 (논현동)",커피숍,37.5128514,127.0343796
788,영업/정상,"서울특별시 강남구 봉은사로24길 73, 지상1층 (역삼동)",커피숍,37.5021951,127.0323208
789,영업/정상,"서울특별시 강남구 압구정로 309, 지상1층 4호,5호 (압구정동, 주구센타에이동)",편의점,37.53121429999999,127.0354395
790,영업/정상,"서울특별시 강남구 봉은사로 129, 지상1층 1호 (논현동, 거평타운오피스텔)",커피숍,37.5058893,127.0282231
791,영업/정상,"서울특별시 강남구 테헤란로 322, 2층 320호 (역삼동, 한신인터밸리24)",커피숍,37.5029732,127.0465325
792,영업/정상,"서울특별시 강남구 선릉로86길 31, 2층 205호 (대치동, 선릉역 롯데골드로즈2)",커피숍,37.5041507,127.0520978
793,영업/정상,"서울특별시 강남구 강남대로 524, 지상1층 101호 (논현동)",커피숍,37.5090222,127.0227614
794,영업/정상,"서울특별시 강남구 언주로159길 15, 나동 1층 (신사동)",커피숍,37.5241655,127.0314749
795,영업/정상,"서울특별시 강남구 테헤란로 322, 지하2층 B105호 (역삼동, 한신인터밸리24)",커피숍,37.5029732,127.0465325
796,영업/정상,"서울특별시 강남구 강남대로 292, 지상3층 (도곡동)",커피숍,37.48859059999999,127.0452757
797,영업/정상,"서울특별시 강남구 압구정로28길 49, 지상1층 101, 102호 (신사동)",편의점,37.5232923,127.027693
798,영업/정상,"서울특별시 강남구 헌릉로569길 9, 지상1층 104호 (세곡동)",커피숍,37.4667942,127.1009354
799,영업/정상,"서울특별시 강남구 논현로94길 32, 지상1층 (역삼동)",편의점,37.5029145,127.0389912
800,영업/정상,"서울특별시 강남구 영동대로 513, 1층 (삼성동, 코엑스 동측광장)",패스트푸드,37.5116828,127.059151
801,영업/정상,"서울특별시 강남구 영동대로 513, 1층 (삼성동, 코엑스 동측광장)",패스트푸드,37.5116828,127.059151
802,영업/정상,"서울특별시 강남구 영동대로 513, 1층 (삼성동, 코엑스 동측광장)",패스트푸드,37.5116828,127.059151
803,영업/정상,"서울특별시 강남구 테헤란로 517, 지하1층 (삼성동, 현대백화점 무역센터점)",커피숍,37.5086154,127.0597808
804,영업/정상,"서울특별시 강남구 강남대로152길 41, 지하1~지상4층 (신사동)",커피숍,37.5182766,127.0226867
805,영업/정상,"서울특별시 강남구 영동대로 513, 지하1층 A105호 (삼성동, 코엑스몰)",편의점,37.5125207,127.0588194
806,영업/정상,"서울특별시 강남구 영동대로 513, 지하1층 A106호 (삼성동, 코엑스)",커피숍,37.5125207,127.0588194
807,영업/정상,"서울특별시 강남구 개포로 617, 로비 1층 (개포동, 수서경찰서)",커피숍,37.49349,127.0772119
808,영업/정상,"서울특별시 강남구 테헤란로 313, 성지하이츠1 지하1층 6호 (역삼동)",패스트푸드,37.5038117,127.0452472
809,영업/정상,"서울특별시 강남구 테헤란로 152, 지하2층 (역삼동, 강남파이낸스센터)",커피숍,37.499927,127.036789
810,영업/정상,"서울특별시 강남구 강남대로140길 6, 1층 (논현동)",커피숍,37.5137083,127.0210182
811,영업/정상,"서울특별시 강남구 역삼로19길 14, 1층 101,102호 (역삼동, 노블스위트)",편의점,37.4960919,127.0373445
812,영업/정상,"서울특별시 강남구 영동대로 325, 지상1층 (대치동, 해암빌딩)",커피숍,37.5034607,127.065435
813,영업/정상,"서울특별시 강남구 선릉로 225, 지하1층 B101,B102호 (도곡동, 도곡렉슬아파트상가)",편의점,37.4953404,127.0526522
814,영업/정상,"서울특별시 강남구 학동로 342, 지하1층 B110호 (논현동, 강남구청역 에스케이 허브 블루)",커피숍,37.5166861,127.0405907
815,영업/정상,"서울특별시 강남구 도곡로99길 23, 지상1층 101호 (대치동)",커피숍,37.5021597,127.0654252
816,영업/정상,"서울특별시 강남구 언주로 211, 병원동 3층 (도곡동)",커피숍,37.4925494,127.0465277
817,영업/정상,"서울특별시 강남구 압구정로28길 13, 1층 (신사동)",패스트푸드,37.5256801,127.0278545
818,영업/정상,"서울특별시 강남구 도산대로53길 13, 2층 (신사동)",커피숍,37.5240398,127.0382807
819,영업/정상,"서울특별시 강남구 광평로34길 30, 지상1층 (수서동)",커피숍,37.482202,127.0941635
820,영업/정상,"서울특별시 강남구 역삼로88길 7, 1층 (대치동)",커피숍,37.5034635,127.0614903
821,영업/정상,"서울특별시 강남구 선릉로 845, 2층 10호 (신사동)",커피숍,37.5275709,127.0403105
822,영업/정상,"서울특별시 강남구 삼성로120길 7, 1층 (삼성동)",편의점,37.5167407,127.0521616
823,영업/정상,"서울특별시 강남구 강남대로112길 20, 지하1,지상1층 (논현동)",커피숍,37.5055149,127.0260688
824,영업/정상,"서울특별시 강남구 도산대로 118, 지상1층 (논현동, 논현빌딩)",커피숍,37.5165672,127.021503
825,영업/정상,"서울특별시 강남구 논현로131길 12, 지하1층 (논현동)",커피숍,37.5144966,127.0292517
826,영업/정상,"서울특별시 강남구 논현로167길 21, 1층 (신사동)",커피숍,37.524497,127.026287
827,영업/정상,"서울특별시 강남구 선릉로69길 19, 지상1층 110호 (역삼동, 역삼래미안상가)",커피숍,37.4975157,127.0500483
828,영업/정상,"서울특별시 강남구 언주로 707, 1층 (논현동)",커피숍,37.5136787,127.0317124
829,영업/정상,"서울특별시 강남구 강남대로98길 17, 2층 (역삼동)",커피숍,37.5009836,127.0279568
830,영업/정상,"서울특별시 강남구 봉은사로50길 19, 지하1층 B01호 (역삼동, 현빌딩)",편의점,37.5088831,127.0434531
831,영업/정상,"서울특별시 강남구 압구정로79길 53, 1층 (청담동)",커피숍,37.5256451,127.0515161
832,영업/정상,"서울특별시 강남구 언주로159길 5, 1층 (신사동)",커피숍,37.5242899,127.032441
833,영업/정상,"서울특별시 강남구 선릉로90길 62, 1층 (대치동)",커피숍,37.5052794,127.0541608
834,영업/정상,"서울특별시 강남구 삼성로95길 15, 1층 (삼성동)",편의점,37.5077573,127.0545287
835,영업/정상,"서울특별시 강남구 삼성로107길 9, 지상1층 (삼성동)",편의점,37.5113581,127.0531112
836,영업/정상,"서울특별시 강남구 논현로72길 13, 1층 (역삼동)",커피숍,37.4958415,127.0405444
837,영업/정상,"서울특별시 강남구 언주로 626, 지상1층 101호 (논현동, 논현로얄팰리스)",커피숍,37.5125944,127.0360626
838,영업/정상,"서울특별시 강남구 도산대로 142, 지하1층 (논현동, 아이디병원)",커피숍,37.5251762,127.0250493
839,영업/정상,"서울특별시 강남구 논현로159길 10, 1층 (신사동)",편의점,37.5231372,127.0274336
840,영업/정상,"서울특별시 강남구 언주로69길 16, 지상1층 101호 (역삼동)",커피숍,37.4964086,127.0439477
841,영업/정상,"서울특별시 강남구 봉은사로 452, 지하1층 (삼성동)",커피숍,37.5115242,127.0490814
842,영업/정상,"서울특별시 강남구 헌릉로571길 7, 1층 102호 (세곡동)",커피숍,37.4660493,127.1013512
843,영업/정상,"서울특별시 강남구 헌릉로745길 37, 지상1층 101호 (율현동, 강남자동차매매장 비동)",편의점,37.470254,127.1184614
844,영업/정상,"서울특별시 강남구 자곡로 180, 지상1층 111-2호 (자곡동, 강남유탑유블레스)",편의점,37.4735878,127.1030378
845,영업/정상,"서울특별시 강남구 봉은사로26길 20, 지상1층 (역삼동)",커피숍,37.5057663,127.0334499
846,영업/정상,"서울특별시 강남구 논현로119길 42, 1층 101호 (논현동)",커피숍,37.5087198,127.0296591
847,영업/정상,"서울특별시 강남구 도곡로 401, 지하1층 (대치동, 롯데백화점 강남점)",커피숍,37.496941,127.05332
848,영업/정상,"서울특별시 강남구 선릉로 724, 2층 (청담동, 트리제이빌딩)",커피숍,37.5192918,127.0408262
849,영업/정상,"서울특별시 강남구 테헤란로55길 28, 지하1층 (역삼동)",커피숍,37.5061285,127.0467179
850,영업/정상,"서울특별시 강남구 압구정로14길 24, 지상1층 101호 (신사동)",커피숍,37.5227255,127.023186
851,영업/정상,"서울특별시 강남구 강남대로132길 59, 지하1층 B101호 (논현동)",커피숍,37.5135109,127.0258454
852,영업/정상,"서울특별시 강남구 테헤란로25길 39, 1층 (역삼동, MK빌딩)",편의점,37.5030766,127.0347559
853,영업/정상,"서울특별시 강남구 선릉로157길 25, 1층 101호 (신사동)",커피숍,37.5261471,127.0377139
854,영업/정상,"서울특별시 강남구 도곡로83길 8, 지상1층 (대치동)",커피숍,37.5001452,127.0623722
855,영업/정상,"서울특별시 강남구 언주로75길 6, 1층 (역삼동)",커피숍,37.4990766,127.0436785
856,영업/정상,"서울특별시 강남구 개포로22길 11, 지상1층 (개포동)",커피숍,37.4782064,127.0480969
857,영업/정상,"서울특별시 강남구 논현로161길 41, 지상1층 101호 (신사동)",커피숍,37.5227992,127.0248175
858,영업/정상,"서울특별시 강남구 도곡로5길 21, 지하1층 (역삼동)",커피숍,37.4915957,127.0336505
859,영업/정상,"서울특별시 강남구 도산대로23길 8, 1층 (신사동)",커피숍,37.5196904,127.026213
860,영업/정상,"서울특별시 강남구 언주로 703, 1층 101,102호 (논현동)",커피숍,37.5136787,127.0317124
861,영업/정상,"서울특별시 강남구 강남대로 390, 지상1층 101호 (역삼동, 미진프라자)",커피숍,37.4978461,127.0286372
862,영업/정상,"서울특별시 강남구 봉은사로2길 39, 지상1,2,3층 (역삼동)",커피숍,37.5020948,127.0266668
863,영업/정상,"서울특별시 강남구 논현로149길 71, 지하1층 (논현동)",커피숍,37.5164876,127.0230581
864,영업/정상,"서울특별시 강남구 영동대로96길 37, 1층 106호 (삼성동)",편의점,37.51169429999999,127.0655406
865,영업/정상,"서울특별시 강남구 학동로33길 15, 지상1층 (논현동, 근영빌딩)",커피숍,37.515718,127.0322938
866,영업/정상,"서울특별시 강남구 논현로151길 23, 1층 102호 (신사동)",커피숍,37.5198007,127.0263171
867,영업/정상,"서울특별시 강남구 도곡로 205, 지상1층 (역삼동)",커피숍,37.493112,127.041268
868,영업/정상,"서울특별시 강남구 삼성로115길 40, 지상1층 (삼성동)",커피숍,37.51414279999999,127.0488664
869,영업/정상,"서울특별시 강남구 영동대로 513, 지하1층 C-109호 (삼성동, 코엑스)",편의점,37.5125207,127.0588194
870,영업/정상,"서울특별시 강남구 선릉로68길 15, 지하1층 (대치동)",커피숍,37.4992759,127.0529261
871,영업/정상,"서울특별시 강남구 밤고개로 99, 지하2층 SB21호 (수서동, 수서역사)",패스트푸드,37.4860551,127.1042286
872,영업/정상,"서울특별시 강남구 선릉로145길 7, 1층 (논현동)",편의점,37.5213236,127.0389295
873,영업/정상,"서울특별시 강남구 역삼로78길 26, 1층 101호 (대치동)",편의점,37.5007731,127.057397
874,영업/정상,"서울특별시 강남구 테헤란로4길 35, 1층 (역삼동)",커피숍,37.4961647,127.0306918
875,영업/정상,"서울특별시 강남구 도산대로 449, 3층 (청담동)",커피숍,37.5243162,127.0453902
876,영업/정상,"서울특별시 강남구 논현로64길 14, 지상1층 (역삼동)",편의점,37.4935949,127.0414679
877,영업/정상,"서울특별시 강남구 봉은사로1길 4, 지상2층 (논현동)",커피숍,37.5051344,127.0253335
878,영업/정상,"서울특별시 강남구 영동대로 732, 지상1층 (청담동)",편의점,37.5233698,127.0558719
879,영업/정상,"서울특별시 강남구 도곡로 511, 지상1층 (대치동)",편의점,37.4996664,127.0622284
880,영업/정상,"서울특별시 강남구 영동대로 316, 1층 (대치동)",커피숍,37.4991887,127.0633458
881,영업/정상,"서울특별시 강남구 선릉로62길 9, 1층 우측호 (대치동)",커피숍,37.49744949999999,127.0534675
882,영업/정상,"서울특별시 강남구 논현로28길 10, 1층 (도곡동, 제이제이빌딩)",패스트푸드,37.4824564,127.0437374
883,영업/정상,"서울특별시 강남구 압구정로75길 30, 1층 (청담동)",커피숍,37.5275941,127.0477656
884,영업/정상,"서울특별시 강남구 일원로5길 68, 1층 101호 (일원동)",커피숍,37.4923628,127.085494
885,영업/정상,"서울특별시 강남구 언주로168길 20, 지상1층 (신사동)",커피숍,37.5260983,127.0351606
886,영업/정상,"서울특별시 강남구 선릉로 605, 1층 (논현동)",편의점,37.5136787,127.0317124
887,영업/정상,"서울특별시 강남구 도산대로30길 7, 1층 (논현동)",커피숍,37.5194023,127.0294305
888,영업/정상,서울특별시 강남구 논현로132길 33 (논현동),커피숍,37.5156627,127.0331298
889,영업/정상,"서울특별시 강남구 영동대로 513, 지하1층 B116호 (삼성동)",편의점,37.5125207,127.0588194
890,영업/정상,"서울특별시 강남구 삼성로147길 46, 지상1층 (청담동)",커피숍,37.5206707,127.0456393
891,영업/정상,"서울특별시 강남구 봉은사로59길 15, 지상1층 102호 (삼성동)",커피숍,37.5120155,127.0455111
892,영업/정상,"서울특별시 강남구 역삼로63길 19-4, 지하1층 B101호 (대치동)",커피숍,37.5025074,127.0517293
893,영업/정상,"서울특별시 강남구 테헤란로25길 47, 1층 (역삼동)",커피숍,37.5035886,127.0344587
894,영업/정상,"서울특별시 강남구 언주로85길 13, 지하1층 (역삼동)",커피숍,37.5005712,127.0423112
895,영업/정상,"서울특별시 강남구 테헤란로 517, 지하1층 (삼성동)",패스트푸드,37.5085949,127.0597186
896,영업/정상,서울특별시 강남구 헌릉로569길 9 (세곡동),패스트푸드,37.4667942,127.1009354
897,영업/정상,"서울특별시 강남구 압구정로 165, 지하1층 (압구정동, 현대백화점본점)",패스트푸드,37.5273268,127.0274265
898,영업/정상,"서울특별시 강남구 선릉로 309, 지상4층 (역삼동, SJ빌딩)",커피숍,37.5075986,127.0360211
899,영업/정상,"서울특별시 강남구 선릉로 309, 지상5층 (역삼동, SJ빌딩)",커피숍,37.5075986,127.0360211
900,영업/정상,"서울특별시 강남구 언주로 110, 1층 101호 (개포동, 경남상가)",편의점,37.48272,127.0748706
901,영업/정상,"서울특별시 강남구 광평로 280, 지하2층 129호 (수서동, 로즈데일빌딩)",커피숍,37.4873264,127.1031402
902,영업/정상,"서울특별시 강남구 봉은사로20길 48, 지상1층 (역삼동)",커피숍,37.5040103,127.0332738
903,영업/정상,"서울특별시 강남구 테헤란로13길 38, 1층 (역삼동)",커피숍,37.5020912,127.0317412
904,영업/정상,"서울특별시 강남구 강남대로102길 20, 지하1층 (역삼동)",커피숍,37.50226019999999,127.0273118
905,영업/정상,"서울특별시 강남구 테헤란로51길 10, 지상1층 (역삼동)",편의점,37.5047612,127.0469874
906,영업/정상,"서울특별시 강남구 논현로 838, 지상1층 (신사동)",커피숍,37.5234564,127.0286181
907,영업/정상,"서울특별시 강남구 압구정로 165, 지하1층 (압구정동, 현대백화점본점)",커피숍,37.5273268,127.0274265
908,영업/정상,"서울특별시 강남구 봉은사로26길 26, 1층 103,104호 (역삼동)",편의점,37.5053998,127.0336464
909,영업/정상,"서울특별시 강남구 테헤란로8길 46, 지상1층 (역삼동)",편의점,37.4958617,127.0322271
910,영업/정상,"서울특별시 강남구 도곡로1길 10, 1층 (역삼동)",커피숍,37.490571,127.0324504
911,영업/정상,"서울특별시 강남구 도산대로 157, 1층 (신사동)",편의점,37.519028,127.0256272
912,영업/정상,"서울특별시 강남구 강남대로 438, 2층 212호 (역삼동, 스타플렉스)",커피숍,37.5000776,127.0385419
913,영업/정상,"서울특별시 강남구 역삼로 458, 지상1층 (대치동)",커피숍,37.5024983,127.0574222
914,영업/정상,"서울특별시 강남구 광평로56길 8-13, 1층 102,103,104,105,106,107호 (수서동, 수서타워)",커피숍,37.486738,127.1031323
915,영업/정상,"서울특별시 강남구 양재대로53길 13, 서현재 지상1층 (일원동)",커피숍,37.4915857,127.0871184
916,영업/정상,"서울특별시 강남구 도산대로 535, 지상1층 (청담동)",커피숍,37.5251478,127.0519905
917,영업/정상,"서울특별시 강남구 개포로 510, 지상2층 (개포동)",커피숍,37.4892656,127.06836
918,영업/정상,"서울특별시 강남구 봉은사로7길 13, 1층 (논현동)",커피숍,37.5063616,127.0272445
919,영업/정상,"서울특별시 강남구 역삼로33길 10, 지상1층 (역삼동)",편의점,37.4978549,127.0417782
920,영업/정상,"서울특별시 강남구 개포로 202, 1층 105호 (개포동)",편의점,37.4781644,127.0449892
921,영업/정상,"서울특별시 강남구 논현로28길 30, 지상1층 (도곡동)",편의점,37.4835644,127.0447584
922,영업/정상,"서울특별시 강남구 강남대로 408, 지상1층 103호 (역삼동, YBM강남센터)",커피숍,37.4992228,127.0275751
923,영업/정상,"서울특별시 강남구 압구정로2길 58, 지상1층 (신사동)",편의점,37.5181796,127.0212039
924,영업/정상,"서울특별시 강남구 봉은사로30길 11, 지상1층 101호 (역삼동, 역삼동658빌딩)",편의점,37.5068188,127.0354755
925,영업/정상,"서울특별시 강남구 테헤란로 517, 현대백화점 10층 (삼성동)",커피숍,37.5085949,127.0597186
926,영업/정상,"서울특별시 강남구 논현로4길 12, 지상1층 (개포동)",편의점,37.47257889999999,127.0512629
927,영업/정상,"서울특별시 강남구 강남대로102길 38, 1층 (역삼동)",커피숍,37.5032534,127.0282395
928,영업/정상,"서울특별시 강남구 남부순환로 2748, 1층 (도곡동)",커피숍,37.48859059999999,127.0452757
929,영업/정상,"서울특별시 강남구 도산대로57길 22, 지하1층 (청담동)",편의점,37.5250891,127.0417094
930,영업/정상,"서울특별시 강남구 테헤란로81길 22, 구암빌딩 1층 102호 (삼성동)",커피숍,37.5085079,127.0569598
931,영업/정상,"서울특별시 강남구 선릉로10길 8, 1층 101호 (개포동)",패스트푸드,37.483305,127.0609082
932,영업/정상,"서울특별시 강남구 언주로147길 37, 지상1층 (논현동)",커피숍,37.5190979,127.0312788
933,영업/정상,"서울특별시 강남구 강남대로122길 30-10, 1층 101호 (논현동)",커피숍,37.5078002,127.0255861
934,영업/정상,"서울특별시 강남구 테헤란로19길 15, 지상1층 (역삼동)",커피숍,37.5010537,127.033227
935,영업/정상,"서울특별시 강남구 자곡로 174-10, 강남에이스타워 지상1층 107호, 108호 (자곡동)",편의점,37.4726101,127.1029635
936,영업/정상,"서울특별시 강남구 학동로 지하 508, 청담역 지하1층 729-3728호 (청담동)",커피숍,37.51912,127.051937
937,영업/정상,"서울특별시 강남구 봉은사로43길 18, 우림빌딩 지상1층 (논현동)",커피숍,37.5104592,127.0398025
938,영업/정상,"서울특별시 강남구 영동대로 211, 영광빌딩 지상1층 (대치동)",커피숍,37.4975726,127.0687682
939,영업/정상,"서울특별시 강남구 봉은사로 409, 1층 (삼성동)",편의점,37.5108813,127.0447634
940,영업/정상,"서울특별시 강남구 선릉로 412, 2층 (대치동)",커피숍,37.4991887,127.0633458
941,영업/정상,"서울특별시 강남구 일원로3길 54, 지상1층 (일원동)",편의점,37.4924024,127.0842333
942,영업/정상,"서울특별시 강남구 헌릉로569길 9, 강남지웰파인즈 2층 205호 (세곡동)",패스트푸드,37.4669731,127.1005262
943,영업/정상,"서울특별시 강남구 삼성로119길 14, 주호빌딩 지상1층 (삼성동)",편의점,37.5160444,127.0503312
944,영업/정상,"서울특별시 강남구 압구정로34길 24, 지상1층 (신사동)",편의점,37.526604,127.0305936
945,영업/정상,"서울특별시 강남구 선릉로158길 9, 지하1층 (청담동)",편의점,37.525708,127.0409258
946,영업/정상,"서울특별시 강남구 영동대로 416, 케이티앤지 타워 1층 (대치동)",커피숍,37.5066085,127.0653699
947,영업/정상,"서울특별시 강남구 테헤란로53길 62, 지상1층 101호 (역삼동)",편의점,37.5074215,127.0438224
948,영업/정상,"서울특별시 강남구 압구정로30길 45, 지상1층 (신사동)",편의점,37.5243422,127.0294113
949,영업/정상,"서울특별시 강남구 도산대로81길 19, 2층 (청담동)",커피숍,37.5256295,127.0473867
950,영업/정상,"서울특별시 강남구 학동로 116, 지상1층 (논현동)",커피숍,37.5115839,127.0236693
951,영업/정상,"서울특별시 강남구 언주로103길 27, 지상1층 103호 (역삼동)",커피숍,37.5061734,127.0378899
952,영업/정상,서울특별시 강남구 도산대로57길 22 (청담동),편의점,37.5250891,127.0417094
953,영업/정상,"서울특별시 강남구 강남대로84길 33, 대우디오빌플러스 지하1층 112호 (역삼동)",편의점,37.4975826,127.0311106
954,영업/정상,"서울특별시 강남구 압구정로79길 25, 지상1층 (청담동)",편의점,37.5253366,127.0491546
955,영업/정상,"서울특별시 강남구 테헤란로114길 11, 강남경찰서 1층 (대치동)",커피숍,37.5094352,127.0669578
956,영업/정상,"서울특별시 강남구 삼성로 308, 지상1층 105호 (대치동)",편의점,37.4997202,127.0608292
957,영업/정상,"서울특별시 강남구 테헤란로26길 12, 제일비전타워 1층 (역삼동)",커피숍,37.4994367,127.0358496
958,영업/정상,"서울특별시 강남구 논현로85길 28, 대한성서공회 역삼동회관 지상1층 (역삼동)",커피숍,37.4988187,127.0355328
959,영업/정상,"서울특별시 강남구 선릉로132길 50, 모노하우스 1층 (청담동)",커피숍,37.5185748,127.0451641
960,영업/정상,"서울특별시 강남구 테헤란로63길 17, 지상1층 (삼성동)",편의점,37.5064845,127.0500369
961,영업/정상,"서울특별시 강남구 봉은사로 446, 슈피겐HQ A동 지상1층 (삼성동)",커피숍,37.5113074,127.0485609
962,영업/정상,"서울특별시 강남구 언주로 211, 강남세브란스병원 별관동 지하1층 (도곡동)",커피숍,37.492736,127.0462661
963,영업/정상,"서울특별시 강남구 테헤란로 403, 리치타워 지상1층 (삼성동)",커피숍,37.5050436,127.0495198
964,영업/정상,"서울특별시 강남구 언주로85길 27, 지상1층 (역삼동)",커피숍,37.5006034,127.0410859
965,영업/정상,"서울특별시 강남구 테헤란로 440, 포스코센터 지하1층 (대치동)",커피숍,37.50579,127.0561533
966,영업/정상,"서울특별시 강남구 테헤란로26길 14, 대세빌딩 1층 (역삼동)",커피숍,37.4992508,127.035933
967,영업/정상,"서울특별시 강남구 삼성로67길 50, 지상1층 (대치동)",커피숍,37.5001086,127.0554492
968,영업/정상,"서울특별시 강남구 테헤란로4길 14, 미림타워 1층 (역삼동)",커피숍,37.49725249999999,127.0295776
969,영업/정상,"서울특별시 강남구 봉은사로 418, 조양빌딩 지상1층 (삼성동)",커피숍,37.5104873,127.0459923
970,영업/정상,"서울특별시 강남구 강남대로 358, 강남358타워 지상1층 (역삼동)",커피숍,37.4950821,127.0297217
971,영업/정상,"서울특별시 강남구 논현로114길 8, 지상1층 103호 (논현동)",커피숍,37.5085177,127.0340766
972,영업/정상,"서울특별시 강남구 테헤란로 409, 동신빌딩 지상1층 (삼성동)",커피숍,37.5053214,127.0504086
973,영업/정상,"서울특별시 강남구 도곡로 405, 삼환 아르누보2 1층 111호 (대치동)",커피숍,37.4974385,127.0546376
974,영업/정상,"서울특별시 강남구 논현로6길 11, HC 지상1층 101호 (개포동)",커피숍,37.4734132,127.0504519
975,영업/정상,"서울특별시 강남구 선릉로126길 14, 지하1층 (삼성동)",편의점,37.5152778,127.0432463
976,영업/정상,"서울특별시 강남구 테헤란로 520, 삼안빌딩 1층 (대치동)",커피숍,37.5078052,127.0610787
977,영업/정상,"서울특별시 강남구 테헤란로 440, 포스코센터 지상 1, 2층 (대치동)",커피숍,37.50579,127.0561533
978,영업/정상,"서울특별시 강남구 도산대로 412, 남강빌딩 지상1층 (청담동)",커피숍,37.5230135,127.0407146
979,영업/정상,"서울특별시 강남구 선릉로 665, 소천빌딩 지상1층 (논현동)",커피숍,37.5160449,127.0414358
980,영업/정상,"서울특별시 강남구 테헤란로 138, 성홍타워 지상1.2층 (역삼동)",커피숍,37.49964240000001,127.0342691
981,영업/정상,"서울특별시 강남구 테헤란로83길 18, 매직킹덤빌딩 1층 (삼성동)",커피숍,37.5086211,127.0577787
982,영업/정상,"서울특별시 강남구 선릉로18길 4, 지상1층 (개포동)",커피숍,37.4839863,127.0595615
983,영업/정상,"서울특별시 강남구 봉은사로 328, 창일빌딩 1층 (역삼동)",패스트푸드,37.5096818,127.0429093
984,영업/정상,"서울특별시 강남구 삼성로96길 7, 지상1층 (삼성동)",커피숍,37.5089134,127.05635
985,영업/정상,"서울특별시 강남구 압구정로14길 36, 1,2,3층 (신사동)",커피숍,37.5220105,127.0232675
986,영업/정상,"서울특별시 강남구 양재대로55길 21, 지상1층 (일원동)",패스트푸드,37.4923168,127.0872704
987,영업/정상,"서울특별시 강남구 언주로172길 15, 지상1층 (신사동)",편의점,37.52785799999999,127.0351712
988,영업/정상,"서울특별시 강남구 테헤란로83길 15, 제이엠빌딩 1층 2호 (삼성동)",커피숍,37.50841330000001,127.0571905
989,영업/정상,"서울특별시 강남구 남부순환로365길 56, 1층 104호 (도곡동)",편의점,37.4891079,127.0402482
990,영업/정상,"서울특별시 강남구 논현로 511, Y and C 빌딩 지상3층 (역삼동)",커피숍,37.5022359,127.0359723
991,영업/정상,"서울특별시 강남구 언주로 508, 공무원연금공단 지하1층 (역삼동)",커피숍,37.5038913,127.0429552
992,영업/정상,"서울특별시 강남구 강남대로94길 71-4, 지상1층 (역삼동)",커피숍,37.5009335,127.0332192
993,영업/정상,"서울특별시 강남구 도곡로63길 36, CNK 지상1층 103호 (대치동)",패스트푸드,37.4992995,127.0536862
994,영업/정상,"서울특별시 강남구 역삼로73길 13, 지상1층 (대치동)",편의점,37.5028395,127.0550727
995,영업/정상,"서울특별시 강남구 역삼로25길 16, 지상1층 (역삼동)",커피숍,37.4973602,127.0397788
996,영업/정상,"서울특별시 강남구 논현로 508, GS강남타워 지상1층 (역삼동)",커피숍,37.5018187,127.0370947
997,영업/정상,"서울특별시 강남구 테헤란로13길 63, 지상1층 (역삼동)",커피숍,37.50334590000001,127.0303
998,영업/정상,"서울특별시 강남구 선릉로 667, 요현빌딩 지하1층 (논현동)",커피숍,37.5162667,127.0413359
999,영업/정상,"서울특별시 강남구 테헤란로 322, 한신인터밸리24빌딩 2층 223호 (역삼동)",커피숍,37.5029732,127.0465325
1000,영업/정상,"서울특별시 강남구 영동대로 513, 코엑스 지상3층 C홀호 (삼성동)",커피숍,37.5116828,127.059151
1001,영업/정상,"서울특별시 강남구 밤고개로 231, A동 101호 (자곡동)",커피숍,37.4738184,127.107303
1002,영업/정상,"서울특별시 강남구 선릉로 844, 신한빌딩 지상1층 (청담동)",편의점,37.5272532,127.0407452
1003,영업/정상,"서울특별시 강남구 도산대로38길 11, 지상1층 (논현동)",커피숍,37.520012,127.0324056
1004,영업/정상,"서울특별시 강남구 양재대로33길 6, 1층 (일원동)",편의점,37.4899733,127.0832614
1005,영업/정상,"서울특별시 강남구 테헤란로43길 12, 지상1층 101호 (역삼동)",편의점,37.5040916,127.0440287
1006,영업/정상,"서울특별시 강남구 도산대로92길 6, 삼성빌딩 1층 103호 (청담동)",커피숍,37.5240654,127.0502594
1007,영업/정상,"서울특별시 강남구 언주로129길 21, 지상1층 104호 (논현동)",커피숍,37.5138858,127.0335213
1008,영업/정상,"서울특별시 강남구 개포로 233, 1층 (개포동)",편의점,37.47905739999999,127.0481149
1009,영업/정상,"서울특별시 강남구 학동로77길 49, 1층 102호 (청담동, 삼환아파트)",편의점,37.5217307,127.0475873
1010,영업/정상,"서울특별시 강남구 논현로151길 15, 1층 (신사동)",커피숍,37.5200792,127.0269778
1011,영업/정상,"서울특별시 강남구 언주로172길 59, 지상1층 (신사동)",편의점,37.5269839,127.0386577
1012,영업/정상,"서울특별시 강남구 테헤란로 517, 현대백화점 6층 (삼성동)",커피숍,37.5085949,127.0597186
1013,영업/정상,"서울특별시 강남구 봉은사로84길 24-1, 지상1층 (삼성동)",커피숍,37.5116123,127.0557845
1014,영업/정상,"서울특별시 강남구 테헤란로13길 16, 지상1층 (역삼동)",편의점,37.5007624,127.0323373
1015,영업/정상,"서울특별시 강남구 영동대로86길 10-6, 지상1층 (대치동)",커피숍,37.5076447,127.0648583
1016,영업/정상,"서울특별시 강남구 일원로9길 30, 지하1층 (일원동)",패스트푸드,37.4899629,127.0841013
1017,영업/정상,"서울특별시 강남구 테헤란로25길 26, 상준빌딩 지상1층 (역삼동)",커피숍,37.5022715,127.0354796
1018,영업/정상,"서울특별시 강남구 영동대로 513, 코엑스 B1층 A105호 (삼성동)",편의점,37.5116828,127.059151
1019,영업/정상,"서울특별시 강남구 광평로 281, 수서빌딩 지상1층 102호 (수서동)",커피숍,37.4880028,127.1026639
1020,영업/정상,"서울특별시 강남구 밤고개로 219, 지상2층 203호 (자곡동)",커피숍,37.4747226,127.1070295
1021,영업/정상,"서울특별시 강남구 강남대로 528, 지상1층,지상2층 (논현동)",커피숍,37.5092823,127.0226269
1022,영업/정상,"서울특별시 강남구 광평로 280, 로즈데일오피스텔 지하2층 121호 (수서동)",커피숍,37.4873425,127.1030015
1023,영업/정상,"서울특별시 강남구 테헤란로 305, 한국기술센터 지상14층 (역삼동)",커피숍,37.5032937,127.0437705
1024,영업/정상,"서울특별시 강남구 삼성로63길 43, 지상1층 101호 (대치동)",커피숍,37.4988627,127.05671
1025,영업/정상,"서울특별시 강남구 역삼로 122, 하나빌딩 지상1층 101호 (역삼동)",커피숍,37.4937114,127.0330496
1026,영업/정상,"서울특별시 강남구 도산대로 522, 지상1층 나호 2호 (청담동)",커피숍,37.5242015,127.0501033
1027,영업/정상,"서울특별시 강남구 개포로21길 7, 지상1층 101호 (개포동)",커피숍,37.4792711,127.0468682
1028,영업/정상,"서울특별시 강남구 봉은사로 215, KTS빌딩 지하1층 (논현동)",커피숍,37.5081007,127.0355636
1029,영업/정상,"서울특별시 강남구 강남대로146길 33, 지상1층 (논현동)",커피숍,37.5154894,127.0227787
1030,영업/정상,"서울특별시 강남구 논현로145길 5, 지상1층 (논현동)",커피숍,37.5170111,127.026204
1031,영업/정상,"서울특별시 강남구 테헤란로 322, 한신인터밸리24빌딩 지하2층 B160,162호 (역삼동)",커피숍,37.5029732,127.0465325
1032,영업/정상,"서울특별시 강남구 학동로1길 11, 영타운빌딩 지상1층 102호 (논현동)",커피숍,37.5120958,127.0216895
1033,영업/정상,"서울특별시 강남구 선릉로82길 20, 지하1층 (대치동)",커피숍,37.5026704,127.0516335
1034,영업/정상,"서울특별시 강남구 강남대로 492, 한맥빌딩 지상1층 (논현동)",편의점,37.5062066,127.0241119
1035,영업/정상,"서울특별시 강남구 선릉로86길 15, 현대선릉 GOLD TOWER 지하1층 B108,B109호 (대치동)",커피숍,37.503546,127.0508294
1036,영업/정상,"서울특별시 강남구 논현로172길 21, 이화빌딩 지상1층 101호 (신사동)",커피숍,37.5255795,127.0304657
1037,영업/정상,"서울특별시 강남구 헌릉로569길 37, 지상1층 101호 (세곡동)",커피숍,37.466797,127.097602
1038,영업/정상,"서울특별시 강남구 학동로101길 21, 지상1층 101호 (청담동)",편의점,37.5218028,127.0571224
1039,영업/정상,"서울특별시 강남구 도곡로78길 7, 지상1층 (대치동)",패스트푸드,37.4976259,127.0593292
1040,영업/정상,"서울특별시 강남구 테헤란로7길 8, 지상1층 (역삼동)",커피숍,37.4997632,127.0310725
1041,영업/정상,"서울특별시 강남구 봉은사로 328, 창일빌딩 지상1층 (역삼동)",커피숍,37.5096818,127.0429093
1042,영업/정상,"서울특별시 강남구 강남대로160길 31, 지상1층 101호 (신사동)",커피숍,37.5201703,127.0212129
1043,영업/정상,"서울특별시 강남구 봉은사로68길 35, 지상1층,지상2층 (삼성동)",커피숍,37.5100259,127.0515836
1044,영업/정상,"서울특별시 강남구 언주로129길 17, 1층 (논현동)",커피숍,37.5139249,127.0338449
1045,영업/정상,"서울특별시 강남구 압구정로50길 8, 지상1층 1호 (신사동)",커피숍,37.5278674,127.0380407
1046,영업/정상,"서울특별시 강남구 테헤란로 131, 한국지식재산센터 지상1층 (역삼동)",커피숍,37.5000287,127.0329141
1047,영업/정상,"서울특별시 강남구 도산대로 113, 지하1층 (신사동)",커피숍,37.5170116,127.0208479
1048,영업/정상,"서울특별시 강남구 헌릉로569길 21-30, 강남 드림하이 오피스텔 지상1층 101, 102호 (세곡동)",커피숍,37.4662929,127.1008381
1049,영업/정상,"서울특별시 강남구 도곡로 443, 지상1층 (대치동)",편의점,37.4985911,127.0588285
1050,영업/정상,"서울특별시 강남구 강남대로 358, 강남358타워 지상1층 104호 (역삼동)",커피숍,37.4950821,127.0297217
1051,영업/정상,"서울특별시 강남구 강남대로 478, 제우빌딩 지하1층 (논현동)",커피숍,37.5050831,127.0246791
1052,영업/정상,"서울특별시 강남구 도곡로 401, 롯데백화점 지하1층 (대치동)",커피숍,37.4970578,127.0535939
1053,영업/정상,"서울특별시 강남구 압구정로30길 23, 미승빌딩 지하1층 (신사동)",커피숍,37.52594819999999,127.0294613
1054,영업/정상,"서울특별시 강남구 삼성로95길 6, 지상1층 (삼성동)",커피숍,37.50845770000001,127.0550512
1055,영업/정상,"서울특별시 강남구 논현로 513, 예지빌딩 지상1층 (역삼동)",커피숍,37.5024385,127.035857
1056,영업/정상,"서울특별시 강남구 일원로5길 43, 지하1층 (일원동)",커피숍,37.4920822,127.0838117
1057,영업/정상,"서울특별시 강남구 강남대로128길 36, 1층 (논현동)",커피숍,37.5106303,127.0250378
1058,영업/정상,"서울특별시 강남구 밤고개로34길 4, 지상1층 내제2호 (세곡동)",커피숍,37.4639996,127.1073088
1059,영업/정상,"서울특별시 강남구 도산대로61길 10, 해석빌딩 지상1층 (청담동)",편의점,37.5245898,127.0429983
1060,영업/정상,"서울특별시 강남구 남부순환로 2621, 서브원 강남빌딩 지상1, 2층 (도곡동)",커피숍,37.4852655,127.0367026
1061,영업/정상,"서울특별시 강남구 언주로 861, 지상1층 (신사동)",커피숍,37.52741049999999,127.0330945
1062,영업/정상,"서울특별시 강남구 역삼로 315, 개나리아파트 상가동 지상1층 107호 (역삼동)",편의점,37.5005462,127.0503306
1063,영업/정상,"서울특별시 강남구 강남대로84길 23, 한라클래식오피스텔 지상1층 107, 108, 109호 (역삼동)",편의점,37.4971347,127.0303771
1064,영업/정상,"서울특별시 강남구 언주로170길 5, 자생한방병원 지상 1층 (신사동)",커피숍,37.527218,127.0343029
1065,영업/정상,"서울특별시 강남구 테헤란로 521, 파르나스타워 지하1층 F-3a호 (삼성동)",커피숍,37.5091322,127.0608511
1066,영업/정상,"서울특별시 강남구 논현로 565, 지상1층 (역삼동, 휴먼터치빌)",편의점,37.5065278,127.0337249
1067,영업/정상,"서울특별시 강남구 논현로18길 8, 1층 (개포동)",커피숍,37.4776787,127.0456579
1068,영업/정상,"서울특별시 강남구 언주로30길 13, 지하1층 18호 (도곡동, 대림아크로빌, 대림아크로텔)",커피숍,37.4881456,127.0509571
1069,영업/정상,"서울특별시 강남구 도산대로37길 20, 1층 (신사동)",커피숍,37.5222821,127.0314799
1070,영업/정상,"서울특별시 강남구 개포로22길 22, 1층 (개포동)",커피숍,37.4774279,127.0484197
1071,영업/정상,"서울특별시 강남구 논현로95길 29-13, 1층 (역삼동)",편의점,37.5011046,127.0341739
1072,영업/정상,"서울특별시 강남구 선릉로69길 7, 지상1층 (역삼동)",편의점,37.4984477,127.051206
1073,영업/정상,"서울특별시 강남구 논현로 566, 강남차병원 본관(A)동 지하1층 (역삼동)",편의점,37.5065713,127.0348
1074,영업/정상,"서울특별시 강남구 역삼로20길 9, 1층 (역삼동)",편의점,37.4947046,127.0376598
1075,영업/정상,"서울특별시 강남구 도곡로 516, 1층 109-1호 (대치동)",커피숍,37.4992034,127.0630995
1076,영업/정상,"서울특별시 강남구 논현로145길 19, 1층 (논현동)",커피숍,37.5174689,127.0272454
1077,영업/정상,"서울특별시 강남구 논현로67길 6, 지하1층 (역삼동)",커피숍,37.4944392,127.0394361
1078,영업/정상,"서울특별시 강남구 남부순환로 2947, 대원빌딩 지상1층 103호 (대치동)",편의점,37.4945248,127.062584
1079,영업/정상,"서울특별시 강남구 자곡로 101, 지하1층 B101호, B102호 (자곡동, 래미안 강남힐즈)",편의점,37.4741294,127.0940867
1080,영업/정상,"서울특별시 강남구 학동로 164, 지하1층 (논현동)",커피숍,37.51309430000001,127.0288602
1081,영업/정상,"서울특별시 강남구 도산대로13길 23, 1층 (신사동)",커피숍,37.5253465,127.0383259
1082,영업/정상,"서울특별시 강남구 언주로 631, 2층 (논현동)",커피숍,37.5136787,127.0317124
1083,영업/정상,"서울특별시 강남구 도산대로25길 37, 지상1층 (신사동)",커피숍,37.5219551,127.0261133
1084,영업/정상,"서울특별시 강남구 삼성로 348, 1층 (대치동)",편의점,37.5026803,127.0591664
1085,영업/정상,"서울특별시 강남구 테헤란로34길 17, 혜성빌딩 지상1층 (역삼동)",편의점,37.5004401,127.0406072
1086,영업/정상,"서울특별시 강남구 자곡로 180, 강남유탑유블레스 1층 102호 (자곡동)",커피숍,37.4735878,127.1030378
1087,영업/정상,"서울특별시 강남구 테헤란로52길 16, 상가2동 지하1층 22호 (역삼동, 테헤란IPARK)",패스트푸드,37.5023526,127.0467285
1088,영업/정상,"서울특별시 강남구 논현로12길 13, 1층 (개포동)",편의점,37.4747551,127.0492953
1089,영업/정상,"서울특별시 강남구 압구정로18길 10, 지상1층 (신사동)",커피숍,37.5241745,127.024363
1090,영업/정상,"서울특별시 강남구 강남대로156길 49, 지상2층 (신사동)",커피숍,37.5193767,127.0228657
1091,영업/정상,"서울특별시 강남구 강남대로 428, 만이빌딩 지상2층 (역삼동)",편의점,37.5007937,127.0268277
1092,영업/정상,"서울특별시 강남구 도산대로15길 24, 지하1층 (신사동)",커피숍,37.5198339,127.0238832
1093,영업/정상,"서울특별시 강남구 테헤란로104길 31, 다온빌딩 1층 (대치동)",편의점,37.5072599,127.0657835
1094,영업/정상,"서울특별시 강남구 일원로 115, 삼성생명 일원동 빌딩 지상1층 118호 (일원동)",편의점,37.4840007,127.0844516
1095,영업/정상,"서울특별시 강남구 언주로106길 7, 지산빌딩 1층 에이2호 (역삼동)",커피숍,37.5078667,127.0403585
1096,영업/정상,"서울특별시 강남구 논현로95길 29-13, 지상1층 (역삼동)",커피숍,37.5011046,127.0341739
1097,영업/정상,"서울특별시 강남구 논현로105길 31, 1층 (역삼동)",편의점,37.5056453,127.0317532
1098,영업/정상,"서울특별시 강남구 봉은사로48길 13, 1층 101호 (역삼동)",편의점,37.5086586,127.0416939
1099,영업/정상,"서울특별시 강남구 테헤란로16길 15, 산하LAW타워 1층 (역삼동)",편의점,37.4985588,127.0341141
1100,영업/정상,"서울특별시 강남구 학동로30길 49, 지상1층 101호 (논현동)",편의점,37.5110793,127.0333035
1101,영업/정상,"서울특별시 강남구 선릉로 225, 도곡렉슬상가  지하1층 B107호 (도곡동)",커피숍,37.4953504,127.0527143
1102,영업/정상,"서울특별시 강남구 논현로 419, PMK 빌딩 2층 (역삼동)",커피숍,37.4975089,127.0380919
1103,영업/정상,"서울특별시 강남구 영동대로96길 34, 대윤빌딩 1층 (삼성동)",커피숍,37.5112294,127.0652939
1104,영업/정상,"서울특별시 강남구 봉은사로49길 7, 지상1층 (논현동)",편의점,37.5104078,127.0419456
1105,영업/정상,"서울특별시 강남구 압구정로34길 11, 압구정스퀘어 1층 113호 (신사동)",커피숍,37.5273895,127.030957
1106,영업/정상,"서울특별시 강남구 테헤란로33길 7, 지상1층 (역삼동)",편의점,37.5023104,127.0393096
1107,영업/정상,"서울특별시 강남구 선릉로 524, 선릉대림아크로텔 지상1층 105호 (삼성동)",편의점,37.5064879,127.048381
1108,영업/정상,"서울특별시 강남구 강남대로 506, 광명빌딩 지상1층 107호 (논현동)",편의점,37.5075072,127.0235049
1109,영업/정상,"서울특별시 강남구 역삼로 432, 쌔씨존 지상1층 (대치동)",커피숍,37.50143870000001,127.0543304
1110,영업/정상,"서울특별시 강남구 테헤란로103길 8-10, 지상1층 (삼성동)",편의점,37.5101582,127.0651363
1111,영업/정상,"서울특별시 강남구 논현로158길 7, 지상1층 101호 (신사동)",편의점,37.5221995,127.0290654
1112,영업/정상,"서울특별시 강남구 선릉로72길 21, 1층 104호 (대치동)",커피숍,37.5005931,127.0527845
1113,영업/정상,"서울특별시 강남구 강남대로150길 11, 지상1층 (논현동)",편의점,37.51605199999999,127.0208052
1114,영업/정상,"서울특별시 강남구 학동로 343, 포바강남타워 지하1층 B103-1호 (논현동)",패스트푸드,37.5174488,127.0406346
1115,영업/정상,"서울특별시 강남구 언주로125길 7, 지상1층 (논현동)",편의점,37.5129128,127.034619
1116,영업/정상,"서울특별시 강남구 도산대로75길 8, 지상1층 (청담동)",편의점,37.5247817,127.0462151
1117,영업/정상,"서울특별시 강남구 남부순환로 2927, 대치 클래시아 지상1층 124호,125호 (대치동)",커피숍,37.49391,127.060213
1118,영업/정상,"서울특별시 강남구 강남대로 538, JS타워 지상1층 (논현동)",커피숍,37.5101771,127.0222327
1119,영업/정상,"서울특별시 강남구 테헤란로 518, 한국섬유산업연합회 지상1층 (대치동)",커피숍,37.5077425,127.0605586
1120,영업/정상,"서울특별시 강남구 학동로 121, 민병원강남타워 지상1층 (논현동)",커피숍,37.5122805,127.0243229
1121,영업/정상,"서울특별시 강남구 테헤란로 517, 현대백화점 지하1층 (삼성동)",커피숍,37.5085949,127.0597186
1122,영업/정상,"서울특별시 강남구 테헤란로14길 31, 은혜빌딩 1층 (역삼동)",커피숍,37.4973369,127.0339918
1123,영업/정상,"서울특별시 강남구 언주로 110, 1층 1-나호 (개포동, 경남아파트)",편의점,37.4843795,127.0543533
1124,영업/정상,"서울특별시 강남구 역삼로9길 28, 도원빌딩 지상1층 (역삼동)",편의점,37.4959595,127.033826
1125,영업/정상,"서울특별시 강남구 선릉로64길 11-2, 지하1층 1호 (대치동)",커피숍,37.4980851,127.0532687
1126,영업/정상,"서울특별시 강남구 일원로 지하 121, 일원역 지하2층 338-102호 (일원동)",편의점,37.483869,127.084032
1127,영업/정상,"서울특별시 강남구 일원로5길 58, 1층 (일원동)",편의점,37.4921574,127.0848625
1128,영업/정상,"서울특별시 강남구 학동로 342, 에스케이 허브블루 지상1층 108호 (논현동)",편의점,37.5166861,127.0405907
1129,영업/정상,"서울특별시 강남구 역삼로77길 15, 지상1층 101호 (대치동)",커피숍,37.5034849,127.056125
1130,영업/정상,"서울특별시 강남구 도산대로 233, 명화빌딩 지상2층 201호 (신사동)",커피숍,37.521458,127.0322711
1131,영업/정상,"서울특별시 강남구 선릉로 845, 지상1층 6호 (신사동)",커피숍,37.5275709,127.0403105
1132,영업/정상,"서울특별시 강남구 테헤란로37길 42, 지하1층 102호 (역삼동)",커피숍,37.5050606,127.0399057
1133,영업/정상,"서울특별시 강남구 일원로9길 60, 지상1층 (일원동)",커피숍,37.4906431,127.086401
1134,영업/정상,"서울특별시 강남구 도산대로 232, 씨이동 1층 에이호 (논현동, 청학아파트)",편의점,37.5202882,127.0322154
1135,영업/정상,"서울특별시 강남구 봉은사로18길 14, 1층 (역삼동)",커피숍,37.5052986,127.0304318
1136,영업/정상,"서울특별시 강남구 자곡로 21, 세곡푸르지오 상가동 1층 101호 (세곡동, 세곡푸르지오)",편의점,37.46677890000001,127.0929671
1137,영업/정상,"서울특별시 강남구 강남대로62길 11, 지상1층 (역삼동)",커피숍,37.4905034,127.0325185
1138,영업/정상,"서울특별시 강남구 남부순환로351길 14, 1층 (도곡동)",편의점,37.4857311,127.0345702
1139,영업/정상,"서울특별시 강남구 남부순환로365길 56, 지상2층 203호 (도곡동)",커피숍,37.4891079,127.0402482
1140,영업/정상,"서울특별시 강남구 학동로 158, 율암빌딩 지하1층 108호 (논현동)",커피숍,37.5129034,127.0282439
1141,영업/정상,"서울특별시 강남구 압구정로 113, 지상1층 101호 (압구정동, 미성아파트)",편의점,37.5239465,127.0182545
1142,영업/정상,"서울특별시 강남구 선릉로 806, 지상1층 (청담동)",커피숍,37.5238647,127.0396187
1143,영업/정상,"서울특별시 강남구 영동대로57길 16, 지상1층 (대치동)",편의점,37.500019,127.0661063
1144,영업/정상,"서울특별시 강남구 헌릉로569길 39-5, 지상1층 (세곡동)",커피숍,37.4663994,127.0978437
1145,영업/정상,"서울특별시 강남구 삼성로 763, 지상1층 (청담동)",커피숍,37.522921,127.0476713
1146,영업/정상,"서울특별시 강남구 봉은사로44길 43, 지상1층 102호 (역삼동)",커피숍,37.5066502,127.0415683
1147,영업/정상,"서울특별시 강남구 도산대로37길 33, 지상1층 (신사동)",커피숍,37.523406,127.0313201
1148,영업/정상,"서울특별시 강남구 도산대로37길 43, 1,2층 일부 (신사동)",커피숍,37.5237869,127.0312285
1149,영업/정상,"서울특별시 강남구 도곡로78길 22, 상가동 지상1층 112,113호 (대치동, 대치삼성아파트)",편의점,37.4963866,127.058402
1150,영업/정상,"서울특별시 강남구 논현로85길 52, 역삼 푸르지오 시티 1층 101호 (역삼동)",커피숍,37.4980124,127.0338301
1151,영업/정상,"서울특별시 강남구 선릉로157길 15, 지상1층 (신사동)",커피숍,37.5259228,127.0385246
1152,영업/정상,"서울특별시 강남구 양재천로 193, 3층 301호 (도곡동)",커피숍,37.4828116,127.0466197
1153,영업/정상,"서울특별시 강남구 테헤란로8길 40, 알티넷빌딩 1층 (역삼동)",커피숍,37.4962388,127.0320773
1154,영업/정상,"서울특별시 강남구 광평로56길 8-13, 수서타워 지상1층 108호 (수서동)",커피숍,37.486738,127.1031323
1155,영업/정상,"서울특별시 강남구 밤고개로24길 64, 지하1층 B102호 (율현동)",커피숍,37.4706181,127.1051421
1156,영업/정상,"서울특별시 강남구 압구정로 165, 현대백화점본점 지하1층 (압구정동)",커피숍,37.5273268,127.0274265
1157,영업/정상,"서울특별시 강남구 강남대로162길 20, 지상1층 (신사동)",커피숍,37.52001449999999,127.0203393
1158,영업/정상,"서울특별시 강남구 삼성로81길 24, 세원빌딩 지상1층 101호 (대치동)",커피숍,37.5042771,127.0556928
1159,영업/정상,"서울특별시 강남구 역삼로15길 20, 지상1층 (역삼동)",편의점,37.4961589,127.0355069
1160,영업/정상,"서울특별시 강남구 압구정로 162, 베네하임시티 지상1층 (신사동)",편의점,37.5262974,127.0274473
1161,영업/정상,"서울특별시 강남구 강남대로128길 46, 1층 (논현동)",커피숍,37.5111187,127.0255325
1162,영업/정상,"서울특별시 강남구 학동로33길 7, 이룸빌딩 지상1층 (논현동)",편의점,37.5151893,127.0325262
1163,영업/정상,"서울특별시 강남구 광평로51길 49, 지상1층 (수서동, 주공아파트)",편의점,37.4911322,127.1001778
1164,영업/정상,"서울특별시 강남구 자곡로7길 32-2, 지상1층 (자곡동)",커피숍,37.4732782,127.0972621
1165,영업/정상,"서울특별시 강남구 선릉로 831, 선우빌딩 지상2층 (신사동)",커피숍,37.5060675,127.0492318
1166,영업/정상,"서울특별시 강남구 개포로25길 6, 1층 (개포동)",커피숍,37.4793292,127.0485448
1167,영업/정상,"서울특별시 강남구 언주로174길 29, 지상1층 4호 (신사동)",편의점,37.5281398,127.0364245
1168,영업/정상,"서울특별시 강남구 밤고개로23길 10-5, 나동 1층 (율현동)",커피숍,37.4730409,127.1082178
1169,영업/정상,"서울특별시 강남구 언주로98길 25, 청담빌딩 지상1층 (역삼동)",편의점,37.5048974,127.0439395
1170,영업/정상,"서울특별시 강남구 일원로 95, 신영프라자 5층 506호 (일원동)",커피숍,37.4856021,127.0835726
1171,영업/정상,"서울특별시 강남구 선릉로 657, 1층 103,105호 (논현동)",패스트푸드,37.5136787,127.0317124
1172,영업/정상,"서울특별시 강남구 강남대로 556, 지하1층 (논현동)",커피숍,37.5136787,127.0317124
1173,영업/정상,"서울특별시 강남구 도산대로89길 12, 1층 105호 (청담동, 청담범신칼릭스빌)",편의점,37.5252602,127.0508448
1174,영업/정상,"서울특별시 강남구 강남대로94길 21, 1층 103호 (역삼동)",커피숍,37.499745,127.0289618
1175,영업/정상,"서울특별시 강남구 선릉로 711, 지상3층 (논현동)",커피숍,37.5136787,127.0317124
1176,영업/정상,"서울특별시 강남구 남부순환로 2947, 대원빌딩 지상1층 101호 지상2층 201호 (대치동)",커피숍,37.4945248,127.062584
1177,영업/정상,"서울특별시 강남구 헌릉로569길 21-30, 드림하이 오피스텔 지상1층 104호 (세곡동)",편의점,37.4663439,127.1005909
1178,영업/정상,"서울특별시 강남구 개포로 623, 대청타워 지상3층 (개포동)",커피숍,37.4940992,127.0796795
1179,영업/정상,"서울특별시 강남구 도산대로101길 29, 상가동 지하1층 6호 (청담동, 청담현대3차아파트)",편의점,37.5269087,127.0535056
1180,영업/정상,"서울특별시 강남구 논현로87길 41, 신일유토빌 지상1층 101호 (역삼동)",편의점,37.4988383,127.0334788
1181,영업/정상,"서울특별시 강남구 개포로 508, 지상1층 109,110호 (개포동)",편의점,37.4892091,127.0679609
1182,영업/정상,"서울특별시 강남구 테헤란로7길 7, 지상1층 (역삼동)",편의점,37.4996222,127.0305148
1183,영업/정상,"서울특별시 강남구 선릉로96길 5-16, 지하1층 (삼성동)",패스트푸드,37.5067036,127.0490544
1184,영업/정상,"서울특별시 강남구 강남대로106길 29, 지상2층 (역삼동)",커피숍,37.5035148,127.0278264
1185,영업/정상,"서울특별시 강남구 광평로47길 17, 상가동 지상1층 104호,105호 (수서동, 신동아아파트)",편의점,37.4870722,127.0984431
1186,영업/정상,"서울특별시 강남구 압구정로4길 10, 두인빌딩 지하1층 1호 (신사동)",편의점,37.5219712,127.0199255
1187,영업/정상,"서울특별시 강남구 선릉로112길 39, 지상1층 (삼성동)",커피숍,37.5121933,127.0466933
1188,영업/정상,"서울특별시 강남구 광평로51길 22, 1층 104호 (수서동, 한아름아파트)",커피숍,37.4894697,127.1035761
1189,영업/정상,"서울특별시 강남구 논현로102길 54, 1층 (역삼동)",편의점,37.506081,127.0394916
1190,영업/정상,"서울특별시 강남구 학동로59길 24, 지상1층 (청담동)",커피숍,37.5188297,127.0445253
1191,영업/정상,"서울특별시 강남구 논현로80길 9, 지상1층 (역삼동)",편의점,37.4982189,127.0390866
1192,영업/정상,"서울특별시 강남구 선릉로62길 33, 장성빌딩 지상1층 (대치동)",커피숍,37.49808160000001,127.0550538
1193,영업/정상,"서울특별시 강남구 선릉로162길 49, 지상4층 (청담동)",커피숍,37.5262414,127.0446035
1194,영업/정상,"서울특별시 강남구 언주로130길 10, 지하1층 (논현동)",편의점,37.5147923,127.0363082
1195,영업/정상,"서울특별시 강남구 역삼로8길 21, 성욱빌딩 지상1층 102호 (역삼동)",편의점,37.4927889,127.0342863
1196,영업/정상,"서울특별시 강남구 논현로4길 36, 지상1층 (개포동)",커피숍,37.4736878,127.0529479
1197,영업/정상,"서울특별시 강남구 압구정로 314, YOHAN빌딩 지상2층 (신사동)",커피숍,37.5287031,127.0357946
1198,영업/정상,"서울특별시 강남구 도산대로85길 30, 지상1층 141호,142호 (청담동, 청담신원아침도시마인)",커피숍,37.5264323,127.0496672
1199,영업/정상,"서울특별시 강남구 봉은사로30길 69, 지상1층 (역삼동, 힐하우스)",커피숍,37.5031898,127.0369865
1200,영업/정상,"서울특별시 강남구 언주로69길 7, 지상1층 (역삼동)",커피숍,37.4964268,127.0447357
1201,영업/정상,"서울특별시 강남구 학동로 219, 지하1층 (논현동)",커피숍,37.5150479,127.0331376
1202,영업/정상,"서울특별시 강남구 밤고개로21길 25, 상가동 지상1층 103호,104호 (자곡동, 래미안포레)",편의점,37.4748705,127.1098391
1203,영업/정상,"서울특별시 강남구 일원로5길 7, 지상 1층 (일원동)",커피숍,37.49102000000001,127.0815404
1204,영업/정상,"서울특별시 강남구 테헤란로2길 8, 1,2층 (역삼동)",커피숍,37.4976012,127.0287219
1205,영업/정상,"서울특별시 강남구 봉은사로 627, 신코빌딩 지상1층 102호 (삼성동)",편의점,37.5153295,127.0640535
1206,영업/정상,"서울특별시 강남구 봉은사로25길 23, 지상1층 (논현동)",커피숍,37.5085413,127.032037
1207,영업/정상,"서울특별시 강남구 삼성로104길 22, 예림빌딩 지상1층 (삼성동)",커피숍,37.5110878,127.0564977
1208,영업/정상,"서울특별시 강남구 테헤란로4길 14, 미림타워 지하 1층 (역삼동)",커피숍,37.49725249999999,127.0295776
1209,영업/정상,"서울특별시 강남구 봉은사로 327, 궁도빌딩 지상1층 (논현동)",커피숍,37.510154,127.0427426
1210,영업/정상,"서울특별시 강남구 테헤란로 152, 지상2층 (역삼동, 강남파이낸스센터)",커피숍,37.499927,127.036789
1211,영업/정상,"서울특별시 강남구 강남대로102길 46, 지상1층 (역삼동)",커피숍,37.5036709,127.0285951
1212,영업/정상,"서울특별시 강남구 영동대로118길 7, 지상1층 (삼성동)",편의점,37.5162264,127.0601627
1213,영업/정상,"서울특별시 강남구 도산대로67길 29, 지상1층 (청담동)",커피숍,37.5260197,127.0443096
1214,영업/정상,"서울특별시 강남구 봉은사로74길 13, 지상1층 102호 (삼성동)",커피숍,37.5116529,127.0518895
1215,영업/정상,"서울특별시 강남구 개포로25길 15, 지상1층 (개포동)",편의점,37.4799951,127.0479908
1216,영업/정상,"서울특별시 강남구 역삼로69길 5, 지상1층 (대치동)",커피숍,37.5019692,127.0537153
1217,영업/정상,"서울특별시 강남구 압구정로 343, 갤러리아백화점 지하1층 (압구정동)",커피숍,37.5285614,127.0400548
1218,영업/정상,"서울특별시 강남구 테헤란로33길 32, SO근생주택빌딩 지상1층 (역삼동)",편의점,37.5038452,127.038846
1219,영업/정상,"서울특별시 강남구 강남대로102길 40, 지상1층 (역삼동)",편의점,37.5034304,127.0283922
1220,영업/정상,"서울특별시 강남구 도곡로 405, 삼환 아르누보2 지상1층 105호 (대치동)",커피숍,37.4974385,127.0546376
1221,영업/정상,"서울특별시 강남구 테헤란로113길 7, 백암아트센터 지상1층 (삼성동)",편의점,37.5105376,127.0659125
1222,영업/정상,"서울특별시 강남구 선릉로62길 27-3, 지하1층,지상1층 (대치동)",커피숍,37.4979911,127.0546888
1223,영업/정상,"서울특별시 강남구 도곡로37길 38, 지상1층 (역삼동)",커피숍,37.4962985,127.0447932
1224,영업/정상,"서울특별시 강남구 도산대로28길 46, 지상1층 (논현동)",커피숍,37.516374,127.0289792
1225,영업/정상,"서울특별시 강남구 언주로70길 10, 지상1층 (역삼동)",편의점,37.4969456,127.0463746
1226,영업/정상,"서울특별시 강남구 논현로175길 38, 지상1층 (신사동)",커피숍,37.5251982,127.0255414
1227,영업/정상,"서울특별시 강남구 논현로161길 15, 지상1층 (신사동)",커피숍,37.5234418,127.0268422
1228,영업/정상,"서울특별시 강남구 언주로 211, 강남세브란스병원 병원동 지상2층 (도곡동)",편의점,37.492736,127.0462661
1229,영업/정상,"서울특별시 강남구 남부순환로 2803, 상가(서관)동 지상1층 102호 (도곡동, 삼성래미안아파트)",편의점,37.4897783,127.0506508
1230,영업/정상,"서울특별시 강남구 학동로 105, 제이빌딩 지하1층 (논현동)",커피숍,37.5118511,127.0221061
1231,영업/정상,"서울특별시 강남구 압구정로 344, 지상1층 3호 (신사동)",커피숍,37.5276883,127.0398541
1232,영업/정상,"서울특별시 강남구 봉은사로112길 28, 지상1층 (삼성동)",커피숍,37.5131218,127.0647387
1233,영업/정상,"서울특별시 강남구 논현로72길 14, 리안빌딩 지상2층 (역삼동)",커피숍,37.4955168,127.0406321
1234,영업/정상,"서울특별시 강남구 언주로164길 23, 지상1층 (신사동)",커피숍,37.5256383,127.0354354
1235,영업/정상,"서울특별시 강남구 논현로114길 8, 지상1층 101호 (논현동)",커피숍,37.5085177,127.0340766
1236,영업/정상,"서울특별시 강남구 개포로 615, 석탑프라자 지하1층 B108호 (개포동)",커피숍,37.4926936,127.0756284
1237,영업/정상,"서울특별시 강남구 논현로161길 51, 지하1,지상1층 (신사동)",커피숍,37.5224769,127.0242113
1238,영업/정상,"서울특별시 강남구 도곡로 405, 삼환 아르누보2 지상1층 110호 (대치동)",패스트푸드,37.4974385,127.0546376
1239,영업/정상,"서울특별시 강남구 자곡로 110, 고수일레븐 지하1층 (자곡동)",패스트푸드,37.4719868,127.0957112
1240,영업/정상,"서울특별시 강남구 자곡로 174-14, 지하1층 (자곡동)",커피숍,37.4721495,127.1032511
1241,영업/정상,"서울특별시 강남구 테헤란로39길 66, 지상1층 (역삼동)",커피숍,37.50659530000001,127.0397901
1242,영업/정상,"서울특별시 강남구 강남대로84길 13, 지상1층,지상2층 (역삼동)",커피숍,37.4968747,127.0295794
1243,영업/정상,"서울특별시 강남구 학동로68길 7, 삼성동힐스테이트 1단지상가동 지상1층 113호 (삼성동)",편의점,37.5174448,127.0467984
1244,영업/정상,"서울특별시 강남구 역삼로 310, 한솔필리아 지상1층 094-1호 (역삼동)",커피숍,37.4991554,127.0483257
1245,영업/정상,"서울특별시 강남구 언주로98길 39-8, 1층 (역삼동)",커피숍,37.5050264,127.0452348
1246,영업/정상,"서울특별시 강남구 도산대로19길 48, 지상1층 (신사동)",커피숍,37.5216854,127.0242899
1247,영업/정상,"서울특별시 강남구 개포로110길 50, 상가동 1층 2호 (일원동, 래미안 루체하임)",편의점,37.4893051,127.0798699
1248,영업/정상,"서울특별시 강남구 도산대로34길 21, 지상1층 102호 (논현동)",커피숍,37.5189634,127.0313446
1249,영업/정상,"서울특별시 강남구 도곡로18길 41, 지상1층 101호 (도곡동)",커피숍,37.4887203,127.0386086
1250,영업/정상,"서울특별시 강남구 테헤란로 208, 안제타워 지상1층 (역삼동)",커피숍,37.5011071,127.0390218
1251,영업/정상,"서울특별시 강남구 강남대로94길 10, 지상1층 (역삼동)",커피숍,37.4992054,127.0281986
1252,영업/정상,"서울특별시 강남구 학동로50길 42, 지하1층 (논현동)",커피숍,37.5139001,127.0406531
1253,영업/정상,"서울특별시 강남구 봉은사로2길 35, 지상1층 (역삼동)",커피숍,37.5024197,127.0265233
1254,영업/정상,"서울특별시 강남구 언주로85길 32, 역삼역센트럴푸르지오 지상1층 103호,104호 (역삼동)",편의점,37.500858,127.0405881
1255,영업/정상,"서울특별시 강남구 논현로93길 3, 호양빌딩 지상1층 (역삼동)",편의점,37.5018798,127.0358901
1256,영업/정상,"서울특별시 강남구 밤고개로 223, 강남센터뷰 1층 5호 (자곡동)",커피숍,37.4737808,127.1065697
1257,영업/정상,"서울특별시 강남구 테헤란로103길 14, 지상1층 (삼성동)",커피숍,37.5104329,127.0642904
1258,영업/정상,"서울특별시 강남구 압구정로42길 45, 지하1~지상1,2층 (신사동)",커피숍,37.5259112,127.0346435
1259,영업/정상,"서울특별시 강남구 논현로98길 7, 지상1층 (역삼동)",편의점,37.5037879,127.0363296
1260,영업/정상,"서울특별시 강남구 언주로 425, 지상1층 (역삼동)",커피숍,37.5000776,127.0385419
1261,영업/정상,"서울특별시 강남구 학동로50길 42, 1층 (논현동)",커피숍,37.5139001,127.0406531
1262,영업/정상,서울특별시 강남구 논현로102길 33 (역삼동),커피숍,37.505781,127.0377558
1263,영업/정상,"서울특별시 강남구 남부순환로351길 19, 1층 (도곡동)",커피숍,37.4860294,127.0341358
1264,영업/정상,"서울특별시 강남구 테헤란로25길 26, 상준빌딩 지상3층 (역삼동)",커피숍,37.5022715,127.0354796
1265,영업/정상,"서울특별시 강남구 테헤란로19길 19, 지상1층 (역삼동)",커피숍,37.5013376,127.0331534
1266,영업/정상,"서울특별시 강남구 논현로28길 27, 지상1층 (도곡동)",커피숍,37.4837461,127.0442626
1267,영업/정상,"서울특별시 강남구 선릉로4길 5, 지상1층 (개포동)",편의점,37.482396,127.0616862
1268,영업/정상,"서울특별시 강남구 테헤란로14길 13, 1층 (역삼동)",커피숍,37.4985274,127.0334825
1269,영업/정상,"서울특별시 강남구 도곡로77길 6, 지상1층 102호 (대치동)",커피숍,37.4987822,127.0587433
1270,영업/정상,"서울특별시 강남구 봉은사로6길 29, 지상2층 (역삼동)",패스트푸드,37.5031436,127.0275768
1271,영업/정상,"서울특별시 강남구 영동대로 640, 상가동 지하2층 110호 (삼성동, 아이파크삼성)",편의점,37.5182869,127.05934
1272,영업/정상,"서울특별시 강남구 선릉로 224, 대치아이파크 1층 106호 (대치동)",커피숍,37.4953504,127.0544641
1273,영업/정상,"서울특별시 강남구 도산대로46길 21, 101동 지하1층 B116호 (논현동, 한진로즈힐아파트)",편의점,37.520717,127.0371476
1274,영업/정상,"서울특별시 강남구 논현로 84, 지상1층 (개포동)",패스트푸드,37.4802905,127.0626272
1275,영업/정상,"서울특별시 강남구 테헤란로 322, 지하1층 102호 (역삼동)",커피숍,37.5029732,127.0465325
1276,영업/정상,"서울특별시 강남구 역삼로 558, 안양빌딩 지상1층 (대치동)",편의점,37.5047106,127.0642962
1277,영업/정상,"서울특별시 강남구 논현로131길 28, 지상1층 (논현동)",커피숍,37.5140759,127.0280905
1278,영업/정상,"서울특별시 강남구 강남대로132길 59, 지하1층 B102호 (논현동)",편의점,37.5135109,127.0258454
1279,영업/정상,"서울특별시 강남구 밤고개로31길 9, 지상1층 16호 (세곡동)",커피숍,37.46537989999999,127.1096293
1280,영업/정상,"서울특별시 강남구 봉은사로4길 29, 지상1층 (역삼동)",편의점,37.5029695,127.0268744
1281,영업/정상,"서울특별시 강남구 남부순환로 2609, 하늘빌딩 1층 102-5호 (도곡동)",패스트푸드,37.4849347,127.0351052
1282,영업/정상,"서울특별시 강남구 논현로85길 57, 지상1층 101호 (역삼동)",편의점,37.4977284,127.0334475
1283,영업/정상,"서울특별시 강남구 선릉로 8, 지하1층 14호 (개포동, 개포래미안블레스티지)",편의점,37.4812262,127.0643915
1284,영업/정상,"서울특별시 강남구 봉은사로 417, 지상1층 (삼성동)",커피숍,37.5111381,127.0457546
1285,영업/정상,"서울특별시 강남구 선릉로161길 18, 지상4층 B파트호 (신사동)",커피숍,37.5274908,127.0390198
1286,영업/정상,"서울특별시 강남구 압구정로 140, 지상1층 (신사동)",커피숍,37.524637,127.0239957
1287,영업/정상,"서울특별시 강남구 영동대로 513, 코엑스 3층  D홀호 (삼성동)",커피숍,37.5116828,127.059151
1288,영업/정상,"서울특별시 강남구 테헤란로 152, 2층 B호 (역삼동, 강남파이낸스센터)",커피숍,37.4998097,127.0366289
1289,영업/정상,"서울특별시 강남구 논현로175길 60, 지상1층 (신사동)",커피숍,37.524382,127.0239773
1290,영업/정상,"서울특별시 강남구 봉은사로 지하 102, 신논현역 지하2층 7,8호 (역삼동)",커피숍,37.504724,127.02538
1291,영업/정상,"서울특별시 강남구 테헤란로 125, D.A디에이성형외과 1층,2층 (역삼동)",커피숍,37.499549,127.0316604
1292,영업/정상,"서울특별시 강남구 도곡로21길 18, 삼정빌딩 지상1층 (역삼동)",편의점,37.4933226,127.038799
1293,영업/정상,"서울특별시 강남구 봉은사로26길 36, 지하1층 (역삼동)",커피숍,37.5047642,127.0339938
1294,영업/정상,"서울특별시 강남구 선릉로135길 6, 1층 (논현동)",커피숍,37.5187781,127.040059
1295,영업/정상,"서울특별시 강남구 논현로85길 46, 지상1층 (역삼동)",커피숍,37.4982559,127.0342612
1296,영업/정상,"서울특별시 강남구 도곡로 452, 미즈메디병원 지상1층 (대치동)",커피숍,37.4982085,127.0599069
1297,영업/정상,"서울특별시 강남구 선릉로64길 15, 지상1층 (대치동)",편의점,37.4981389,127.0534401
1298,영업/정상,"서울특별시 강남구 테헤란로98길 28, 3층 2호 (대치동)",커피숍,37.5065661,127.0627967
1299,영업/정상,"서울특별시 강남구 논현로164길 17, 1층 (신사동)",커피숍,37.5235312,127.0297965
1300,영업/정상,"서울특별시 강남구 논현로161길 59, 지하1층 (신사동)",커피숍,37.5221637,127.0235652
1301,영업/정상,"서울특별시 강남구 논현로155길 27, 지하1층 (신사동)",커피숍,37.521355,127.0258822
1302,영업/정상,"서울특별시 강남구 언주로135길 32-9, 오하우스 1층 101호 (논현동)",커피숍,37.5172532,127.0324468
1303,영업/정상,"서울특별시 강남구 강남대로162길 24, 지하1층 (신사동)",커피숍,37.520191,127.0206124
1304,영업/정상,"서울특별시 강남구 삼성로 324, 신해청아파트 지상1층 103호 (대치동)",커피숍,37.5008476,127.0601302
1305,영업/정상,"서울특별시 강남구 학동로37길 23, 지상1층 (논현동)",편의점,37.5168076,127.0343016
1306,영업/정상,"서울특별시 강남구 테헤란로 151, 지하1층 주2-8호 (역삼동)",패스트푸드,37.5010231,127.0360826
1307,영업/정상,"서울특별시 강남구 양재대로55길 5, 지상1층 (일원동)",편의점,37.4912472,127.0878061
1308,영업/정상,"서울특별시 강남구 언주로136길 26, 지상1층 (논현동)",커피숍,37.5175114,127.0376773
1309,영업/정상,"서울특별시 강남구 압구정로14길 22, 지상1층 (신사동)",커피숍,37.5228428,127.0230945
1310,영업/정상,"서울특별시 강남구 남부순환로359길 13, 지상1층 102호 (도곡동)",커피숍,37.4858738,127.0364174
1311,영업/정상,"서울특별시 강남구 헌릉로569길 3, 지상1층 104호 (세곡동)",패스트푸드,37.4667925,127.1013351
1312,영업/정상,"서울특별시 강남구 도산대로55길 22, 지하1층 (청담동)",편의점,37.5249465,127.0406813
1313,영업/정상,"서울특별시 강남구 삼성로107길 23, 셔우드 1층 103호 (삼성동)",커피숍,37.5110007,127.0520803
1314,영업/정상,"서울특별시 강남구 봉은사로 236, 해안신관 지하2층 (역삼동)",커피숍,37.5082755,127.0380722
1315,영업/정상,"서울특별시 강남구 선릉로127길 12, 1층 101호 (논현동)",편의점,37.5155648,127.0406809
1316,영업/정상,"서울특별시 강남구 테헤란로 431, 1층 (삼성동)",커피숍,37.5065995,127.0541343
1317,영업/정상,"서울특별시 강남구 압구정로4길 13-4, 덕호빌딩 지상1층 101호 일부 (신사동)",커피숍,37.521777,127.0205316
1318,영업/정상,"서울특별시 강남구 학동로50길 36, 지상1층 101호 (논현동)",커피숍,37.5142916,127.0404735
1319,영업/정상,"서울특별시 강남구 남부순환로 3104, SETEC 1층 (대치동)",커피숍,37.4957118,127.0717957
1320,영업/정상,"서울특별시 강남구 논현로 172, 파비스빌딩 1층 (도곡동)",패스트푸드,37.48859059999999,127.0452757
1321,영업/정상,"서울특별시 강남구 테헤란로 510, 루첸타워 지하1층 (대치동)",커피숍,37.507009,127.0586339
1322,영업/정상,"서울특별시 강남구 봉은사로 474, 1층 104호 (삼성동, 쌍용 플래티넘)",패스트푸드,37.5123174,127.0518299
1323,영업/정상,"서울특별시 강남구 논현로 854, 지상1층 102호 (신사동)",커피숍,37.5254187,127.028869
1324,영업/정상,"서울특별시 강남구 남부순환로 2942, 풍림프라자 지하1층 151-3호 (대치동)",커피숍,37.4935818,127.0623994
1325,영업/정상,"서울특별시 강남구 강남대로 272, 102동 101호 (도곡동, 도곡푸르지오)",편의점,37.4863012,127.0406942
1326,영업/정상,"서울특별시 강남구 도곡로70길 5, 지상1층 102호 (대치동)",커피숍,37.4970053,127.0566182
1327,영업/정상,"서울특별시 강남구 영동대로137길 3, 지상1층 102호,103호 (청담동)",편의점,37.5217739,127.0552543
1328,영업/정상,"서울특별시 강남구 테헤란로114길 38, 동일타워 지상1층 (대치동)",커피숍,37.5071423,127.066996
1329,영업/정상,"서울특별시 강남구 도산대로49길 36, 지상1층 (신사동)",편의점,37.5253065,127.0371817
1330,영업/정상,"서울특별시 강남구 도곡로 401, 롯데백화점 본관  1층 (대치동)",커피숍,37.4970578,127.0535939
1331,영업/정상,"서울특별시 강남구 논현로176길 20, 지상1층 (신사동)",편의점,37.5272323,127.0301438
1332,영업/정상,"서울특별시 강남구 테헤란로25길 59, 지하1층 (역삼동)",편의점,37.5042741,127.0341751
1333,영업/정상,"서울특별시 강남구 삼성로 307, 지상1층 101호 (대치동)",편의점,37.4994104,127.0602933
